{"type": "FeatureCollection", "name": "destinations", "crs": {"type": "name", "properties": {"name": "urn:ogc:def:crs:OGC:1.3:CRS84"}}, "features": [{"type": "Feature", "properties": {"dest_name": "Nathalie Beauty Clinic Jambi", "category": "health", "node_id": 6137108348, "dest_id": 0}, "geometry": {"type": "Point", "coordinates": [103.6217781, -1.6067482]}}, {"type": "Feature", "properties": {"dest_name": "RS Bhayangkara Mayang Mangurai", "category": "health", "node_id": 5143621149, "dest_id": 1}, "geometry": {"type": "Point", "coordinates": [103.6180658108946, -1.589455476779959]}}, {"type": "Feature", "properties": {"dest_name": "RSUD H. Abdul Manap", "category": "health", "node_id": 6077322247, "dest_id": 2}, "geometry": {"type": "Point", "coordinates": [103.57899357534399, -1.641149697388527]}}, {"type": "Feature", "properties": {"dest_name": "RSJ Provinsi Jambi", "category": "health", "node_id": 6178434311, "dest_id": 3}, "geometry": {"type": "Point", "coordinates": [103.55208293715982, -1.613709068147133]}}, {"type": "Feature", "properties": {"dest_name": "RSUD Raden Mattaher Jambi", "category": "health", "node_id": 4271535400, "dest_id": 4}, "geometry": {"type": "Point", "coordinates": [103.57928238751929, -1.602674151075526]}}, {"type": "Feature", "properties": {"dest_name": "Puskesmas Pembantu Kel. Selamat", "category": "health", "node_id": 6130042003, "dest_id": 5}, "geometry": {"type": "Point", "coordinates": [103.59614667213454, -1.616150145138237]}}, {"type": "Feature", "properties": {"dest_name": "Puskesmas Rawasari", "category": "health", "node_id": 6130613670, "dest_id": 6}, "geometry": {"type": "Point", "coordinates": [103.58445163628518, -1.623656018414373]}}, {"type": "Feature", "properties": {"dest_name": "Klinik Dara Jingga", "category": "health", "node_id": 5122353312, "dest_id": 7}, "geometry": {"type": "Point", "coordinates": [103.61906774646053, -1.592784869124319]}}, {"type": "Feature", "properties": {"dest_name": "Erha Skin Hayam Wuruk", "category": "health", "node_id": 6136251412, "dest_id": 8}, "geometry": {"type": "Point", "coordinates": [103.61652239833127, -1.604672267416]}}, {"type": "Feature", "properties": {"dest_name": "Rumah Bersalin Zainun", "category": "health", "node_id": 5143548514, "dest_id": 9}, "geometry": {"type": "Point", "coordinates": [103.62001862487065, -1.607743906165242]}}, {"type": "Feature", "properties": {"dest_name": "Puskesmas Pakuan Baru", "category": "health", "node_id": 6136251455, "dest_id": 10}, "geometry": {"type": "Point", "coordinates": [103.62292837930251, -1.608156866467683]}}, {"type": "Feature", "properties": {"dest_name": "Kakiku Refleksi", "category": "health", "node_id": 7588337293, "dest_id": 11}, "geometry": {"type": "Point", "coordinates": [103.61549149999969, -1.593883300000687]}}, {"type": "Feature", "properties": {"dest_name": "RS DR Bratanata Jambi", "category": "health", "node_id": 7621835150, "dest_id": 12}, "geometry": {"type": "Point", "coordinates": [103.61850945813386, -1.59326434814573]}}, {"type": "Feature", "properties": {"dest_name": "RS Santa Theresia", "category": "health", "node_id": 5122353939, "dest_id": 13}, "geometry": {"type": "Point", "coordinates": [103.61736382502951, -1.591905156567267]}}, {"type": "Feature", "properties": {"dest_name": "RS Baiturrahim", "category": "health", "node_id": 7591804184, "dest_id": 14}, "geometry": {"type": "Point", "coordinates": [103.60552032894698, -1.605805396156513]}}, {"type": "Feature", "properties": {"dest_name": "RS Islam Arafah", "category": "health", "node_id": 11036527399, "dest_id": 15}, "geometry": {"type": "Point", "coordinates": [103.60223652895752, -1.602709515403824]}}, {"type": "Feature", "properties": {"dest_name": "Rumah Sakit Siloam Jambi", "category": "health", "node_id": 9467804884, "dest_id": 16}, "geometry": {"type": "Point", "coordinates": [103.63565075767586, -1.628525303618068]}}, {"type": "Feature", "properties": {"dest_name": "Kambang Eye Clinic", "category": "health", "node_id": 5126812855, "dest_id": 17}, "geometry": {"type": "Point", "coordinates": [103.59058270000483, -1.616230100000464]}}, {"type": "Feature", "properties": {"dest_name": "Puskesmas Paal Merah 2", "category": "health", "node_id": 6130497000, "dest_id": 18}, "geometry": {"type": "Point", "coordinates": [103.64362954676207, -1.647443635804636]}}, {"type": "Feature", "properties": {"dest_name": "RS Erni Medika", "category": "health", "node_id": 6130182763, "dest_id": 19}, "geometry": {"type": "Point", "coordinates": [103.65292990920797, -1.638216092247453]}}, {"type": "Feature", "properties": {"dest_name": "RSIA Annisa", "category": "health", "node_id": 5715947998, "dest_id": 20}, "geometry": {"type": "Point", "coordinates": [103.62378942667699, -1.630920896612822]}}, {"type": "Feature", "properties": {"dest_name": "Puskesmas Putri Ayu", "category": "health", "node_id": 5122352877, "dest_id": 21}, "geometry": {"type": "Point", "coordinates": [103.60705338167196, -1.595483528979915]}}, {"type": "Feature", "properties": {"dest_name": "Puskesmas Tanjung Pinang", "category": "health", "node_id": 6135340313, "dest_id": 22}, "geometry": {"type": "Point", "coordinates": [103.6321256096154, -1.590772764766278]}}, {"type": "Feature", "properties": {"dest_name": "Naavagreen Natural Skin Care", "category": "health", "node_id": 4636656304, "dest_id": 23}, "geometry": {"type": "Point", "coordinates": [103.58908222979088, -1.620505603900274]}}, {"type": "Feature", "properties": {"dest_name": "Puskesmas Aur Duri", "category": "health", "node_id": 6178178025, "dest_id": 24}, "geometry": {"type": "Point", "coordinates": [103.54885150574054, -1.604087123832601]}}, {"type": "Feature", "properties": {"dest_name": "Jambi Skin Centre", "category": "health", "node_id": 9339634037, "dest_id": 25}, "geometry": {"type": "Point", "coordinates": [103.59765634963136, -1.599824766479289]}}, {"type": "Feature", "properties": {"dest_name": "RS Rimbo Medika", "category": "health", "node_id": 6471670836, "dest_id": 26}, "geometry": {"type": "Point", "coordinates": [103.5557382358769, -1.619377300681715]}}, {"type": "Feature", "properties": {"dest_name": "Bidan Rosdiana", "category": "health", "node_id": 6130012353, "dest_id": 27}, "geometry": {"type": "Point", "coordinates": [103.6290429999998, -1.610657950000189]}}, {"type": "Feature", "properties": {"dest_name": "Klinik Spesialis Prima", "category": "health", "node_id": 7588337310, "dest_id": 28}, "geometry": {"type": "Point", "coordinates": [103.61332086877256, -1.593166214071488]}}, {"type": "Feature", "properties": {"dest_name": "RS Mayang Medical Centre", "category": "health", "node_id": 6130613022, "dest_id": 29}, "geometry": {"type": "Point", "coordinates": [103.58808010230301, -1.623037332138205]}}, {"type": "Feature", "properties": {"dest_name": "Puskesmas KONI", "category": "health", "node_id": 7621981059, "dest_id": 30}, "geometry": {"type": "Point", "coordinates": [103.62051636510547, -1.597961779300058]}}, {"type": "Feature", "properties": {"dest_name": "RS Umum Kambang", "category": "health", "node_id": 4270167292, "dest_id": 31}, "geometry": {"type": "Point", "coordinates": [103.58961978860897, -1.617020989967978]}}, {"type": "Feature", "properties": {"dest_name": "RSUD H. Abdurrahman Sayoeti", "category": "health", "node_id": 5126812635, "dest_id": 32}, "geometry": {"type": "Point", "coordinates": [103.6019068720681, -1.580785811493149]}}, {"type": "Feature", "properties": {"dest_name": "Rumah Sakit Royal Prima", "category": "health", "node_id": 6136160696, "dest_id": 33}, "geometry": {"type": "Point", "coordinates": [103.62368101537243, -1.640323859621177]}}, {"type": "Feature", "properties": {"dest_name": "RS Mitra", "category": "health", "node_id": 6135575703, "dest_id": 34}, "geometry": {"type": "Point", "coordinates": [103.605793149352, -1.631636566290898]}}, {"type": "Feature", "properties": {"dest_name": "Refleksi Kakiku", "category": "health", "node_id": 5122353295, "dest_id": 35}, "geometry": {"type": "Point", "coordinates": [103.61546325000134, -1.594421000002452]}}, {"type": "Feature", "properties": {"dest_name": "Poliklinik Sakyakirti Jambi", "category": "health", "node_id": 6731801086, "dest_id": 36}, "geometry": {"type": "Point", "coordinates": [103.62123876116678, -1.597563272220552]}}, {"type": "Feature", "properties": {"dest_name": "Puskesmas Paal X", "category": "health", "node_id": 6129920524, "dest_id": 37}, "geometry": {"type": "Point", "coordinates": [103.59485273920463, -1.663837032636894]}}, {"type": "Feature", "properties": {"dest_name": "RS Rapha Theresia", "category": "health", "node_id": 6167527621, "dest_id": 38}, "geometry": {"type": "Point", "coordinates": [103.61380375225804, -1.679098730297888]}}, {"type": "Feature", "properties": {"dest_name": "SMP Purnama 3", "category": "education", "node_id": 6077419853, "dest_id": 39}, "geometry": {"type": "Point", "coordinates": [103.5989048, -1.6351969]}}, {"type": "Feature", "properties": {"dest_name": "SMK Purnama 1", "category": "education", "node_id": 7568133665, "dest_id": 40}, "geometry": {"type": "Point", "coordinates": [103.5989162, -1.6349406]}}, {"type": "Feature", "properties": {"dest_name": "SMA Purnama 2", "category": "education", "node_id": 7568133665, "dest_id": 41}, "geometry": {"type": "Point", "coordinates": [103.5989276, -1.6346844]}}, {"type": "Feature", "properties": {"dest_name": "TK Jai Nalanda", "category": "education", "node_id": 5978743842, "dest_id": 42}, "geometry": {"type": "Point", "coordinates": [103.6187682, -1.6004869]}}, {"type": "Feature", "properties": {"dest_name": "MTs PKP Al Hidayah", "category": "education", "node_id": 6129920555, "dest_id": 43}, "geometry": {"type": "Point", "coordinates": [103.5950657, -1.6651405]}}, {"type": "Feature", "properties": {"dest_name": "SMA IT An-Nahl", "category": "education", "node_id": 7622062451, "dest_id": 44}, "geometry": {"type": "Point", "coordinates": [103.5632314, -1.5937009]}}, {"type": "Feature", "properties": {"dest_name": "SMP IT An-Nahl", "category": "education", "node_id": 7622062451, "dest_id": 45}, "geometry": {"type": "Point", "coordinates": [103.5631175, -1.5931883]}}, {"type": "Feature", "properties": {"dest_name": "SMA Negeri 4 Kota Jambi", "category": "education", "node_id": 6130538306, "dest_id": 46}, "geometry": {"type": "Point", "coordinates": [103.58470949965832, -1.62786759049222]}}, {"type": "Feature", "properties": {"dest_name": "SMP/SMA Xaverius 2 Jambi", "category": "education", "node_id": 6168048329, "dest_id": 47}, "geometry": {"type": "Point", "coordinates": [103.57820436684216, -1.613960049551056]}}, {"type": "Feature", "properties": {"dest_name": "SD Negeri 107/IV Jambi", "category": "education", "node_id": 5143484324, "dest_id": 48}, "geometry": {"type": "Point", "coordinates": [103.63349058371985, -1.616771044477788]}}, {"type": "Feature", "properties": {"dest_name": "SDN 52 Kota Jambi", "category": "education", "node_id": 5715948238, "dest_id": 49}, "geometry": {"type": "Point", "coordinates": [103.59750458012032, -1.616821472549463]}}, {"type": "Feature", "properties": {"dest_name": "SD Negeri 42 Kota Jambi", "category": "education", "node_id": 7735589515, "dest_id": 50}, "geometry": {"type": "Point", "coordinates": [103.58472944489009, -1.623792867940272]}}, {"type": "Feature", "properties": {"dest_name": "SD Kristen Bina Kasih", "category": "education", "node_id": 6129888580, "dest_id": 51}, "geometry": {"type": "Point", "coordinates": [103.61249173614466, -1.605923904752572]}}, {"type": "Feature", "properties": {"dest_name": "Sekolah Kristen Bina Kasih", "category": "education", "node_id": 6129888580, "dest_id": 52}, "geometry": {"type": "Point", "coordinates": [103.61284855066702, -1.605944116107265]}}, {"type": "Feature", "properties": {"dest_name": "TK Bina Kasih", "category": "education", "node_id": 4791450341, "dest_id": 53}, "geometry": {"type": "Point", "coordinates": [103.61435085170537, -1.606712058020596]}}, {"type": "Feature", "properties": {"dest_name": "Suria Harapan School", "category": "education", "node_id": 6259172782, "dest_id": 54}, "geometry": {"type": "Point", "coordinates": [103.61527209999699, -1.608733500001303]}}, {"type": "Feature", "properties": {"dest_name": "TK Al Kautsar", "category": "education", "node_id": 6134455111, "dest_id": 55}, "geometry": {"type": "Point", "coordinates": [103.61857765000066, -1.614077499999981]}}, {"type": "Feature", "properties": {"dest_name": "SDN 189 Kota Jambi", "category": "education", "node_id": 5143548512, "dest_id": 56}, "geometry": {"type": "Point", "coordinates": [103.62115884278245, -1.60879410836697]}}, {"type": "Feature", "properties": {"dest_name": "SD Negeri 200/IV Jambi", "category": "education", "node_id": 6129939036, "dest_id": 57}, "geometry": {"type": "Point", "coordinates": [103.62000363454547, -1.61390408332819]}}, {"type": "Feature", "properties": {"dest_name": "TK Rumpun Tani", "category": "education", "node_id": 6136251456, "dest_id": 58}, "geometry": {"type": "Point", "coordinates": [103.62314703589465, -1.60863544878349]}}, {"type": "Feature", "properties": {"dest_name": "TK Kemala Bhayangkari 30", "category": "education", "node_id": 5143547616, "dest_id": 59}, "geometry": {"type": "Point", "coordinates": [103.62371339999798, -1.611977999998313]}}, {"type": "Feature", "properties": {"dest_name": "SMP Negeri 1 Kota Jambi", "category": "education", "node_id": 6742977683, "dest_id": 60}, "geometry": {"type": "Point", "coordinates": [103.61793114984621, -1.592178778798083]}}, {"type": "Feature", "properties": {"dest_name": "SD Islam AL Azhar Jambi", "category": "education", "node_id": 6168057495, "dest_id": 61}, "geometry": {"type": "Point", "coordinates": [103.58631068362581, -1.616448103790865]}}, {"type": "Feature", "properties": {"dest_name": "SD Negeri 73 Jambi", "category": "education", "node_id": 6135163011, "dest_id": 62}, "geometry": {"type": "Point", "coordinates": [103.61200766226625, -1.603260536839545]}}, {"type": "Feature", "properties": {"dest_name": "SD Negeri 113 Kota Jambi", "category": "education", "node_id": 6167939755, "dest_id": 63}, "geometry": {"type": "Point", "coordinates": [103.5815950242727, -1.615660502771642]}}, {"type": "Feature", "properties": {"dest_name": "SMK Veteran Jambi", "category": "education", "node_id": 5122353843, "dest_id": 64}, "geometry": {"type": "Point", "coordinates": [103.63243251713912, -1.584364201000539]}}, {"type": "Feature", "properties": {"dest_name": "Akademi Keperawatan Garuda Putih", "category": "education", "node_id": 5122353934, "dest_id": 65}, "geometry": {"type": "Point", "coordinates": [103.61799706508315, -1.594048559793958]}}, {"type": "Feature", "properties": {"dest_name": "SD Negeri 220 Kota Jambi", "category": "education", "node_id": 6178674937, "dest_id": 66}, "geometry": {"type": "Point", "coordinates": [103.55123505553496, -1.606952633885661]}}, {"type": "Feature", "properties": {"dest_name": "SMP Negeri 2 Jambi", "category": "education", "node_id": 7621808040, "dest_id": 67}, "geometry": {"type": "Point", "coordinates": [103.6151960486362, -1.597190750022527]}}, {"type": "Feature", "properties": {"dest_name": "MTs Al-Munawwarah", "category": "education", "node_id": 6178178025, "dest_id": 68}, "geometry": {"type": "Point", "coordinates": [103.54858262086755, -1.604117878490521]}}, {"type": "Feature", "properties": {"dest_name": "SD Negeri 120 Kota Jambi", "category": "education", "node_id": 4272179609, "dest_id": 69}, "geometry": {"type": "Point", "coordinates": [103.54949014419532, -1.602289832216415]}}, {"type": "Feature", "properties": {"dest_name": "TK - Playgroup - Bimbel Golden Kids", "category": "education", "node_id": 6259216028, "dest_id": 70}, "geometry": {"type": "Point", "coordinates": [103.6192144662557, -1.603653154047512]}}, {"type": "Feature", "properties": {"dest_name": "PAUD Islam Khairunnisa", "category": "education", "node_id": 6129888651, "dest_id": 71}, "geometry": {"type": "Point", "coordinates": [103.6133448359753, -1.600903186809335]}}, {"type": "Feature", "properties": {"dest_name": "SD Negeri 204 Kota Jambi", "category": "education", "node_id": 6098927229, "dest_id": 72}, "geometry": {"type": "Point", "coordinates": [103.5819124671077, -1.655742529798556]}}, {"type": "Feature", "properties": {"dest_name": "SMP Negeri 7 Kota Jambi", "category": "education", "node_id": 6167868767, "dest_id": 73}, "geometry": {"type": "Point", "coordinates": [103.57549967481222, -1.6094566954612]}}, {"type": "Feature", "properties": {"dest_name": "SD Negeri 124/IV Kota Jambi", "category": "education", "node_id": 7735732783, "dest_id": 74}, "geometry": {"type": "Point", "coordinates": [103.58643115299567, -1.61888290020242]}}, {"type": "Feature", "properties": {"dest_name": "SD Negeri 185/IV Jambi", "category": "education", "node_id": 7621843436, "dest_id": 75}, "geometry": {"type": "Point", "coordinates": [103.62239733693949, -1.603738547546826]}}, {"type": "Feature", "properties": {"dest_name": "Sekolah Nasional Sariputra Jambi", "category": "education", "node_id": 6731786681, "dest_id": 76}, "geometry": {"type": "Point", "coordinates": [103.62144648528671, -1.598452732976341]}}, {"type": "Feature", "properties": {"dest_name": "Jai Nalanda School", "category": "education", "node_id": 5978743842, "dest_id": 77}, "geometry": {"type": "Point", "coordinates": [103.61870005001002, -1.600537600016449]}}, {"type": "Feature", "properties": {"dest_name": "SMP Negeri 10 Jambi", "category": "education", "node_id": 6135478428, "dest_id": 78}, "geometry": {"type": "Point", "coordinates": [103.62263430144836, -1.593312009868505]}}, {"type": "Feature", "properties": {"dest_name": "SD Negeri 9 Jambi", "category": "education", "node_id": 6043690166, "dest_id": 79}, "geometry": {"type": "Point", "coordinates": [103.60469681092073, -1.604024661658901]}}, {"type": "Feature", "properties": {"dest_name": "Madrasah Tsanawiyah Swasta Guppi", "category": "education", "node_id": 6259096136, "dest_id": 80}, "geometry": {"type": "Point", "coordinates": [103.62247846848797, -1.605367413151645]}}, {"type": "Feature", "properties": {"dest_name": "Sekolah Islam Al-Falah", "category": "education", "node_id": 5715948238, "dest_id": 81}, "geometry": {"type": "Point", "coordinates": [103.59709293991251, -1.617099592279269]}}, {"type": "Feature", "properties": {"dest_name": "SMP Negeri 11 Kota Jambi", "category": "education", "node_id": 9411950399, "dest_id": 82}, "geometry": {"type": "Point", "coordinates": [103.59598181999617, -1.61830396000462]}}, {"type": "Feature", "properties": {"dest_name": "SD Negeri 66 Kota Jambi", "category": "education", "node_id": 6167868774, "dest_id": 83}, "geometry": {"type": "Point", "coordinates": [103.57660696189538, -1.608967621845044]}}, {"type": "Feature", "properties": {"dest_name": "SMA IT Nurul Ilmi", "category": "education", "node_id": 6472396263, "dest_id": 84}, "geometry": {"type": "Point", "coordinates": [103.55994614999203, -1.626118749991087]}}, {"type": "Feature", "properties": {"dest_name": "PAUD Islam Terpadu Nurul Azmi", "category": "education", "node_id": 6130625925, "dest_id": 85}, "geometry": {"type": "Point", "coordinates": [103.61726375011374, -1.660609400321507]}}, {"type": "Feature", "properties": {"dest_name": "SD MI Sa Adatul Khidmah", "category": "education", "node_id": 4791347349, "dest_id": 86}, "geometry": {"type": "Point", "coordinates": [103.62571223290757, -1.614534803162157]}}, {"type": "Feature", "properties": {"dest_name": "SD Negeri 28", "category": "education", "node_id": 6129965798, "dest_id": 87}, "geometry": {"type": "Point", "coordinates": [103.6264569000026, -1.615231250004409]}}, {"type": "Feature", "properties": {"dest_name": "TK Islam Diniyyah Al-Azhar Jambi", "category": "education", "node_id": 6168057495, "dest_id": 88}, "geometry": {"type": "Point", "coordinates": [103.58665415829617, -1.615849730189209]}}, {"type": "Feature", "properties": {"dest_name": "SMAS Nommensen Kota Jambi", "category": "education", "node_id": 6130012419, "dest_id": 89}, "geometry": {"type": "Point", "coordinates": [103.63028030000996, -1.612578500001133]}}, {"type": "Feature", "properties": {"dest_name": "SD Negeri 59/IV Jambi", "category": "education", "node_id": 6129857257, "dest_id": 90}, "geometry": {"type": "Point", "coordinates": [103.6322532315981, -1.611413280757299]}}, {"type": "Feature", "properties": {"dest_name": "SMP Nommensen Kota Jambi", "category": "education", "node_id": 6130012419, "dest_id": 91}, "geometry": {"type": "Point", "coordinates": [103.63013872015223, -1.6127748194824]}}, {"type": "Feature", "properties": {"dest_name": "Sariputra School", "category": "education", "node_id": 4791450335, "dest_id": 92}, "geometry": {"type": "Point", "coordinates": [103.62077209089871, -1.598553021506688]}}, {"type": "Feature", "properties": {"dest_name": "SMP Negeri 16 Jambi", "category": "education", "node_id": 6077321763, "dest_id": 93}, "geometry": {"type": "Point", "coordinates": [103.57925863456236, -1.633611911733347]}}, {"type": "Feature", "properties": {"dest_name": "SD Negeri 211 Kota Jambi", "category": "education", "node_id": 6167997301, "dest_id": 94}, "geometry": {"type": "Point", "coordinates": [103.55800859896455, -1.648236707850074]}}, {"type": "Feature", "properties": {"dest_name": "SMP Negeri 22 Kota Jambi", "category": "education", "node_id": 6168113874, "dest_id": 95}, "geometry": {"type": "Point", "coordinates": [103.54312095798117, -1.633344613783261]}}, {"type": "Feature", "properties": {"dest_name": "SMK Negeri 3 Kota Jambi", "category": "education", "node_id": 6475884580, "dest_id": 96}, "geometry": {"type": "Point", "coordinates": [103.59237729612099, -1.667807312219566]}}, {"type": "Feature", "properties": {"dest_name": "SMK Prasasti Karang Berahi", "category": "education", "node_id": 5143613103, "dest_id": 97}, "geometry": {"type": "Point", "coordinates": [103.6089934233236, -1.597802570643664]}}, {"type": "Feature", "properties": {"dest_name": "SDN 2 Kota Jambi", "category": "education", "node_id": 5143613101, "dest_id": 98}, "geometry": {"type": "Point", "coordinates": [103.60963021121033, -1.597885780219159]}}, {"type": "Feature", "properties": {"dest_name": "SMPN 5 Kota Jambi", "category": "education", "node_id": 6135201970, "dest_id": 99}, "geometry": {"type": "Point", "coordinates": [103.60403402370838, -1.605515398231517]}}, {"type": "Feature", "properties": {"dest_name": "SMAN 14 Kota Jambi", "category": "education", "node_id": 6130448505, "dest_id": 100}, "geometry": {"type": "Point", "coordinates": [103.58119242959813, -1.655894904640064]}}, {"type": "Feature", "properties": {"dest_name": "SD Negeri 206 Kota Jambi", "category": "education", "node_id": 6259114730, "dest_id": 101}, "geometry": {"type": "Point", "coordinates": [103.59774205446884, -1.660773646859767]}}, {"type": "Feature", "properties": {"dest_name": "SMP Negeri 21 Kota Jambi", "category": "education", "node_id": 12649689793, "dest_id": 102}, "geometry": {"type": "Point", "coordinates": [103.60234426094269, -1.667120743259215]}}, {"type": "Feature", "properties": {"dest_name": "SMA PGRI 2", "category": "education", "node_id": 4791450360, "dest_id": 103}, "geometry": {"type": "Point", "coordinates": [103.61951040290529, -1.617608303842957]}}, {"type": "Feature", "properties": {"dest_name": "SMAN 3 Kota Jambi", "category": "education", "node_id": 6129939049, "dest_id": 104}, "geometry": {"type": "Point", "coordinates": [103.62051240592294, -1.616043099077881]}}, {"type": "Feature", "properties": {"dest_name": "SMP Negeri 23 Kota Jambi", "category": "education", "node_id": 7611969820, "dest_id": 105}, "geometry": {"type": "Point", "coordinates": [103.63574437506324, -1.57096956035095]}}, {"type": "Feature", "properties": {"dest_name": "SD Negeri 25 Kota Jambi", "category": "education", "node_id": 5715948156, "dest_id": 106}, "geometry": {"type": "Point", "coordinates": [103.58914906567091, -1.62526528806178]}}, {"type": "Feature", "properties": {"dest_name": "SDN 144 Kota Jambi", "category": "education", "node_id": 6130546881, "dest_id": 107}, "geometry": {"type": "Point", "coordinates": [103.59848654610674, -1.621202535453887]}}, {"type": "Feature", "properties": {"dest_name": "SMPN 8 Kota Jambi", "category": "education", "node_id": 6130547201, "dest_id": 108}, "geometry": {"type": "Point", "coordinates": [103.5982823938586, -1.623078522653629]}}, {"type": "Feature", "properties": {"dest_name": "SD 176 Kota Jambi", "category": "education", "node_id": 5126813088, "dest_id": 109}, "geometry": {"type": "Point", "coordinates": [103.6192377446117, -1.64129243166167]}}, {"type": "Feature", "properties": {"dest_name": "SMPN 14 Jambi", "category": "education", "node_id": 5108705300, "dest_id": 110}, "geometry": {"type": "Point", "coordinates": [103.60972979835627, -1.640622442998201]}}, {"type": "Feature", "properties": {"dest_name": "SD 65 Kota Jambi", "category": "education", "node_id": 6084603165, "dest_id": 111}, "geometry": {"type": "Point", "coordinates": [103.60392305876977, -1.63814068789542]}}, {"type": "Feature", "properties": {"dest_name": "SD Negeri 69 Jambi", "category": "education", "node_id": 7594849846, "dest_id": 112}, "geometry": {"type": "Point", "coordinates": [103.57048926575642, -1.586581051094677]}}, {"type": "Feature", "properties": {"dest_name": "SD Negeri 22 Kota Jambi", "category": "education", "node_id": 4271540235, "dest_id": 113}, "geometry": {"type": "Point", "coordinates": [103.57390648557774, -1.597615051435407]}}, {"type": "Feature", "properties": {"dest_name": "SD Negeri 87 Kota Jambi", "category": "education", "node_id": 6168033195, "dest_id": 114}, "geometry": {"type": "Point", "coordinates": [103.57340149283172, -1.597669494677409]}}, {"type": "Feature", "properties": {"dest_name": "SD Negeri 84 Kota Jambi", "category": "education", "node_id": 6141459777, "dest_id": 115}, "geometry": {"type": "Point", "coordinates": [103.65483027925544, -1.607109391667241]}}, {"type": "Feature", "properties": {"dest_name": "SMK Negeri 2 Kota Jambi", "category": "education", "node_id": 6080862023, "dest_id": 116}, "geometry": {"type": "Point", "coordinates": [103.64408723932259, -1.619616969097968]}}, {"type": "Feature", "properties": {"dest_name": "SMA Negeri 6 Kota Jambi", "category": "education", "node_id": 6080860835, "dest_id": 117}, "geometry": {"type": "Point", "coordinates": [103.6057376611906, -1.635436101365501]}}, {"type": "Feature", "properties": {"dest_name": "SD Negeri 213 Jambi", "category": "education", "node_id": 6130573351, "dest_id": 118}, "geometry": {"type": "Point", "coordinates": [103.6099642499849, -1.658152850030476]}}, {"type": "Feature", "properties": {"dest_name": "SD Negeri 10 Jambi", "category": "education", "node_id": 6144289639, "dest_id": 119}, "geometry": {"type": "Point", "coordinates": [103.62046483124409, -1.573397129993324]}}, {"type": "Feature", "properties": {"dest_name": "TK Pertiwi XI", "category": "education", "node_id": 6144289637, "dest_id": 120}, "geometry": {"type": "Point", "coordinates": [103.62083019999992, -1.57342475]}}, {"type": "Feature", "properties": {"dest_name": "MAN 1 Kota Jambi", "category": "education", "node_id": 7647920560, "dest_id": 121}, "geometry": {"type": "Point", "coordinates": [103.59709257547973, -1.569100004105739]}}, {"type": "Feature", "properties": {"dest_name": "SD Negeri 4 Kota Jambi", "category": "education", "node_id": 5126812751, "dest_id": 122}, "geometry": {"type": "Point", "coordinates": [103.61578323365728, -1.583307284416743]}}, {"type": "Feature", "properties": {"dest_name": "SMK Negeri 1 Kota Jambi", "category": "education", "node_id": 6167868771, "dest_id": 123}, "geometry": {"type": "Point", "coordinates": [103.5762232278501, -1.610109633671223]}}, {"type": "Feature", "properties": {"dest_name": "SMA 5 Negeri Kota Jambi", "category": "education", "node_id": 4271701899, "dest_id": 124}, "geometry": {"type": "Point", "coordinates": [103.57415753474028, -1.616722130903809]}}, {"type": "Feature", "properties": {"dest_name": "SMP Negeri 17 Kota Jambi", "category": "education", "node_id": 9409593696, "dest_id": 125}, "geometry": {"type": "Point", "coordinates": [103.57429116345106, -1.616070103335518]}}, {"type": "Feature", "properties": {"dest_name": "SD Negeri 53 Kota Jambi", "category": "education", "node_id": 5715948192, "dest_id": 126}, "geometry": {"type": "Point", "coordinates": [103.60114327898259, -1.624156665303812]}}, {"type": "Feature", "properties": {"dest_name": "SD Negeri 53 Kenali Kecil", "category": "education", "node_id": 3444339628, "dest_id": 127}, "geometry": {"type": "Point", "coordinates": [103.54421415727096, -1.621682552905879]}}, {"type": "Feature", "properties": {"dest_name": "SD Negeri 1 Kota Jambi", "category": "education", "node_id": 12920872915, "dest_id": 128}, "geometry": {"type": "Point", "coordinates": [103.61938827028982, -1.595707283140591]}}, {"type": "Feature", "properties": {"dest_name": "SMP Negeri 9 Jambi", "category": "education", "node_id": 12920872923, "dest_id": 129}, "geometry": {"type": "Point", "coordinates": [103.6199665923762, -1.59542314926083]}}, {"type": "Feature", "properties": {"dest_name": "SMP Negeri 19 Jambi", "category": "education", "node_id": 6167688367, "dest_id": 130}, "geometry": {"type": "Point", "coordinates": [103.56626227794976, -1.596648386769364]}}, {"type": "Feature", "properties": {"dest_name": "SD Negeri 208 Kota Jambi", "category": "education", "node_id": 7594849828, "dest_id": 131}, "geometry": {"type": "Point", "coordinates": [103.56300138824052, -1.577863489606974]}}, {"type": "Feature", "properties": {"dest_name": "Pasar Jambi", "category": "economic", "node_id": 5126812899, "dest_id": 132}, "geometry": {"type": "Point", "coordinates": [103.6169637, -1.590752]}}, {"type": "Feature", "properties": {"dest_name": "pasar TAC", "category": "economic", "node_id": 13132795383, "dest_id": 133}, "geometry": {"type": "Point", "coordinates": [103.59508, -1.6113216]}}, {"type": "Feature", "properties": {"dest_name": "Pasar Buah Kota Jambi", "category": "economic", "node_id": 7588337296, "dest_id": 134}, "geometry": {"type": "Point", "coordinates": [103.6171100057903, -1.593768126110553]}}, {"type": "Feature", "properties": {"dest_name": "Unnamed", "category": "economic", "node_id": 6722762618, "dest_id": 135}, "geometry": {"type": "Point", "coordinates": [103.60810794996353, -1.590632600025309]}}, {"type": "Feature", "properties": {"dest_name": "Unnamed", "category": "economic", "node_id": 7588087851, "dest_id": 136}, "geometry": {"type": "Point", "coordinates": [103.60838958994988, -1.591570330304377]}}, {"type": "Feature", "properties": {"dest_name": "Unnamed", "category": "economic", "node_id": 6130596991, "dest_id": 137}, "geometry": {"type": "Point", "coordinates": [103.6094655201479, -1.591206034605323]}}, {"type": "Feature", "properties": {"dest_name": "Unnamed", "category": "economic", "node_id": 6130596991, "dest_id": 138}, "geometry": {"type": "Point", "coordinates": [103.60919326024938, -1.590362776144644]}}, {"type": "Feature", "properties": {"dest_name": "Pasar Aur Duri", "category": "economic", "node_id": 6167678968, "dest_id": 139}, "geometry": {"type": "Point", "coordinates": [103.5485466854172, -1.604434060117329]}}, {"type": "Feature", "properties": {"dest_name": "Pasar Mama", "category": "economic", "node_id": 6077322737, "dest_id": 140}, "geometry": {"type": "Point", "coordinates": [103.58172219248115, -1.636046202407731]}}, {"type": "Feature", "properties": {"dest_name": "Jambi Town Square", "category": "economic", "node_id": 6130613004, "dest_id": 141}, "geometry": {"type": "Point", "coordinates": [103.5869721225989, -1.62194020005128]}}, {"type": "Feature", "properties": {"dest_name": "Wiltop Trade Centre", "category": "economic", "node_id": 5122353941, "dest_id": 142}, "geometry": {"type": "Point", "coordinates": [103.61540084912619, -1.58890144644449]}}, {"type": "Feature", "properties": {"dest_name": "Jambi Prima Mall", "category": "economic", "node_id": 6136250565, "dest_id": 143}, "geometry": {"type": "Point", "coordinates": [103.6192154145287, -1.604705023632196]}}, {"type": "Feature", "properties": {"dest_name": "Klinik pratama PURI MEDIKA", "category": "health", "node_id": 6178200580, "dest_id": 144}, "geometry": {"type": "Point", "coordinates": [103.5498923, -1.6076851]}}, {"type": "Feature", "properties": {"dest_name": "Rumah Sakit Jiwa Jambi", "category": "health", "node_id": 9357390065, "dest_id": 145}, "geometry": {"type": "Point", "coordinates": [103.5517973, -1.6144399]}}, {"type": "Feature", "properties": {"dest_name": "KLINIK PRATAMA PRIMA LESTARI", "category": "health", "node_id": 7568506376, "dest_id": 146}, "geometry": {"type": "Point", "coordinates": [103.5686411, -1.6169637]}}, {"type": "Feature", "properties": {"dest_name": "Siloam Hospitals Jambi", "category": "health", "node_id": 5143505142, "dest_id": 147}, "geometry": {"type": "Point", "coordinates": [103.635871, -1.62799]}}, {"type": "Feature", "properties": {"dest_name": "Arafah Islamic Hospital", "category": "health", "node_id": 6135095897, "dest_id": 148}, "geometry": {"type": "Point", "coordinates": [103.60181830000002, -1.6030367]}}, {"type": "Feature", "properties": {"dest_name": "Raden Mattaher Hospital", "category": "health", "node_id": 4271537358, "dest_id": 149}, "geometry": {"type": "Point", "coordinates": [103.5802235, -1.6029239]}}, {"type": "Feature", "properties": {"dest_name": "Klinik Pratama DOKTER YANTI", "category": "health", "node_id": 6080861651, "dest_id": 150}, "geometry": {"type": "Point", "coordinates": [103.6514311, -1.6090954]}}, {"type": "Feature", "properties": {"dest_name": "Klinik Pratama Polda Jambi", "category": "health", "node_id": 5143547617, "dest_id": 151}, "geometry": {"type": "Point", "coordinates": [103.6228692, -1.6107452]}}, {"type": "Feature", "properties": {"dest_name": "Klinik Pratama Letrysa", "category": "health", "node_id": 6077420620, "dest_id": 152}, "geometry": {"type": "Point", "coordinates": [103.57428720000001, -1.6545318]}}, {"type": "Feature", "properties": {"dest_name": "Klinik Pratama Dewi", "category": "health", "node_id": 6130538836, "dest_id": 153}, "geometry": {"type": "Point", "coordinates": [103.5878774, -1.6293669]}}, {"type": "Feature", "properties": {"dest_name": "KLINIK PRATAMA REMODIA", "category": "health", "node_id": 6167880338, "dest_id": 154}, "geometry": {"type": "Point", "coordinates": [103.5814822, -1.6267078]}}, {"type": "Feature", "properties": {"dest_name": "Klinik Pratama Paramedika", "category": "health", "node_id": 6471670801, "dest_id": 155}, "geometry": {"type": "Point", "coordinates": [103.556227, -1.6249601]}}, {"type": "Feature", "properties": {"dest_name": "Klinik Pratama Happy, Jambi", "category": "health", "node_id": 6080862331, "dest_id": 156}, "geometry": {"type": "Point", "coordinates": [103.6294922, -1.6078366]}}, {"type": "Feature", "properties": {"dest_name": "Klinik Pratama Syifa Medika", "category": "health", "node_id": 5722943085, "dest_id": 157}, "geometry": {"type": "Point", "coordinates": [103.5652385, -1.6165997]}}, {"type": "Feature", "properties": {"dest_name": "Klinik Pratama Kopkar Kompak", "category": "health", "node_id": 6129866997, "dest_id": 158}, "geometry": {"type": "Point", "coordinates": [103.60069910000001, -1.6050888]}}, {"type": "Feature", "properties": {"dest_name": "KLINIK PRATAMA JENTERA MEDIKA", "category": "health", "node_id": 6259089015, "dest_id": 159}, "geometry": {"type": "Point", "coordinates": [103.6011828, -1.6078043]}}, {"type": "Feature", "properties": {"dest_name": "Pustu Buluran", "category": "health", "node_id": 4271540240, "dest_id": 160}, "geometry": {"type": "Point", "coordinates": [103.5735312, -1.5951482]}}, {"type": "Feature", "properties": {"dest_name": "Pustu Sungai Sawang", "category": "health", "node_id": 13394748170, "dest_id": 161}, "geometry": {"type": "Point", "coordinates": [103.5938466, -1.6310559]}}, {"type": "Feature", "properties": {"dest_name": "Klinik Pratama Medina", "category": "health", "node_id": 6080859913, "dest_id": 162}, "geometry": {"type": "Point", "coordinates": [103.6209521, -1.6321358]}}, {"type": "Feature", "properties": {"dest_name": "KLINIK PRATAMA BNNP JAMBI", "category": "health", "node_id": 6475886728, "dest_id": 163}, "geometry": {"type": "Point", "coordinates": [103.607654, -1.6271718]}}, {"type": "Feature", "properties": {"dest_name": "Klinik Pratama Sentra Alyatama Jambi", "category": "health", "node_id": 6130178589, "dest_id": 164}, "geometry": {"type": "Point", "coordinates": [103.6642925, -1.6357248]}}, {"type": "Feature", "properties": {"dest_name": "Rumah Bersalin (RB) Nurmalis", "category": "health", "node_id": 6135478555, "dest_id": 165}, "geometry": {"type": "Point", "coordinates": [103.6262608, -1.5928854]}}, {"type": "Feature", "properties": {"dest_name": "Klinik Pratama Bratanata", "category": "health", "node_id": 5714168276, "dest_id": 166}, "geometry": {"type": "Point", "coordinates": [103.6280344, -1.6041426]}}, {"type": "Feature", "properties": {"dest_name": "Klinik pratama 16 medika", "category": "health", "node_id": 4271528993, "dest_id": 167}, "geometry": {"type": "Point", "coordinates": [103.5709376, -1.6323251]}}, {"type": "Feature", "properties": {"dest_name": "KLINIK PRATAMA VILLA KENALI PERMAI", "category": "health", "node_id": 4269799672, "dest_id": 168}, "geometry": {"type": "Point", "coordinates": [103.5826232, -1.645802]}}, {"type": "Feature", "properties": {"dest_name": "KLINIK PRATAMA MCS", "category": "health", "node_id": 7588087800, "dest_id": 169}, "geometry": {"type": "Point", "coordinates": [103.5992315, -1.5972473]}}, {"type": "Feature", "properties": {"dest_name": "MTS ASAS ISLAMIYAH JAMBI", "category": "education", "node_id": 2853572914, "dest_id": 170}, "geometry": {"type": "Point", "coordinates": [103.5801278, -1.619795]}}, {"type": "Feature", "properties": {"dest_name": "SMP XAVERIUS 1 JAMBI (Xaverius 1 Jambi Junior High School)", "category": "education", "node_id": 7576938768, "dest_id": 171}, "geometry": {"type": "Point", "coordinates": [103.630953, -1.625991]}}, {"type": "Feature", "properties": {"dest_name": "SMP Negeri 25 Kota Jambi", "category": "education", "node_id": 5715948044, "dest_id": 172}, "geometry": {"type": "Point", "coordinates": [103.6215395, -1.6389829]}}, {"type": "Feature", "properties": {"dest_name": "Junior High School 20 Jambi", "category": "education", "node_id": 6259278292, "dest_id": 173}, "geometry": {"type": "Point", "coordinates": [103.6578666, -1.6423612]}}, {"type": "Feature", "properties": {"dest_name": "SMP-SMA Nurul Khoir Jambi", "category": "education", "node_id": 7610937721, "dest_id": 174}, "geometry": {"type": "Point", "coordinates": [103.5454291, -1.6339341]}}, {"type": "Feature", "properties": {"dest_name": "SDN 218/IV Jambi", "category": "education", "node_id": 10963007493, "dest_id": 175}, "geometry": {"type": "Point", "coordinates": [103.62939160000002, -1.6383613]}}, {"type": "Feature", "properties": {"dest_name": "PERWAKILAN SMP 13 KOJA", "category": "education", "node_id": 6167868774, "dest_id": 176}, "geometry": {"type": "Point", "coordinates": [103.5759868, -1.6091504]}}, {"type": "Feature", "properties": {"dest_name": "SD Alam Al Fath", "category": "education", "node_id": 6080862219, "dest_id": 177}, "geometry": {"type": "Point", "coordinates": [103.64048760000001, -1.6112035]}}, {"type": "Feature", "properties": {"dest_name": "PAUD Hidayatul Iman", "category": "education", "node_id": 6484910995, "dest_id": 178}, "geometry": {"type": "Point", "coordinates": [103.6234748, -1.6537128]}}, {"type": "Feature", "properties": {"dest_name": "SD Negeri 135", "category": "education", "node_id": 6481122295, "dest_id": 179}, "geometry": {"type": "Point", "coordinates": [103.6730074, -1.6148695]}}, {"type": "Feature", "properties": {"dest_name": "SDN 109 South Jambi", "category": "education", "node_id": 5162150975, "dest_id": 180}, "geometry": {"type": "Point", "coordinates": [103.6540387, -1.6226491]}}, {"type": "Feature", "properties": {"dest_name": "SDN 224 KOTA JAMBI", "category": "education", "node_id": 6129939317, "dest_id": 181}, "geometry": {"type": "Point", "coordinates": [103.650842, -1.6563354]}}, {"type": "Feature", "properties": {"dest_name": "Tk. Bahrul Ulun Nafis", "category": "education", "node_id": 6130729097, "dest_id": 182}, "geometry": {"type": "Point", "coordinates": [103.6214569, -1.6538854]}}, {"type": "Feature", "properties": {"dest_name": "Tk & LPQ Nurul Yaqin", "category": "education", "node_id": 6484910712, "dest_id": 183}, "geometry": {"type": "Point", "coordinates": [103.636364, -1.6261905]}}, {"type": "Feature", "properties": {"dest_name": "BRILLIANT INDONESIA Bimbel SNBT/UM PTN, SEKOLAH KEDINASAN, POLISI/TNI, CPNS, BUMN/BUMS", "category": "education", "node_id": 7594291894, "dest_id": 184}, "geometry": {"type": "Point", "coordinates": [103.6546062, -1.6285914]}}, {"type": "Feature", "properties": {"dest_name": "TK/ KB IBA (ISTANA BELAJAR ANAK)", "category": "education", "node_id": 4791347377, "dest_id": 185}, "geometry": {"type": "Point", "coordinates": [103.6482121, -1.6495968]}}, {"type": "Feature", "properties": {"dest_name": "Sekolah Islam Permata Insani Jambi (PAUD dan SD)", "category": "education", "node_id": 6259150985, "dest_id": 186}, "geometry": {"type": "Point", "coordinates": [103.637456, -1.6439843]}}, {"type": "Feature", "properties": {"dest_name": "RA Utsman bin Affan (RAUBA)", "category": "education", "node_id": 5716016029, "dest_id": 187}, "geometry": {"type": "Point", "coordinates": [103.6480423, -1.6324751]}}, {"type": "Feature", "properties": {"dest_name": "SD N 161/IV", "category": "education", "node_id": 6131908553, "dest_id": 188}, "geometry": {"type": "Point", "coordinates": [103.6508594, -1.5935375]}}, {"type": "Feature", "properties": {"dest_name": "Tree House Preschool & Daycare Jambi 2", "category": "education", "node_id": 6077414318, "dest_id": 189}, "geometry": {"type": "Point", "coordinates": [103.5829049, -1.6485631]}}, {"type": "Feature", "properties": {"dest_name": "Pondok Pesantren Tamrinullisan", "category": "education", "node_id": 7604948520, "dest_id": 190}, "geometry": {"type": "Point", "coordinates": [103.57242460000002, -1.633028]}}, {"type": "Feature", "properties": {"dest_name": "TK PINANG MASAK", "category": "education", "node_id": 6167953268, "dest_id": 191}, "geometry": {"type": "Point", "coordinates": [103.5687569, -1.6623794]}}, {"type": "Feature", "properties": {"dest_name": "TK Para Bintang", "category": "education", "node_id": 6471670801, "dest_id": 192}, "geometry": {"type": "Point", "coordinates": [103.5560354, -1.625113]}}, {"type": "Feature", "properties": {"dest_name": "Ceria Bimbel Jambi", "category": "education", "node_id": 6261052033, "dest_id": 193}, "geometry": {"type": "Point", "coordinates": [103.6112943, -1.6225238]}}, {"type": "Feature", "properties": {"dest_name": "Sekolah Menengah Pertama Ahmad Dahlan", "category": "education", "node_id": 11294849862, "dest_id": 194}, "geometry": {"type": "Point", "coordinates": [103.6119922, -1.6271808]}}, {"type": "Feature", "properties": {"dest_name": "TK PAUD PELANGI KOTA JAMBI", "category": "education", "node_id": 13086230240, "dest_id": 195}, "geometry": {"type": "Point", "coordinates": [103.5558057, -1.6371422]}}, {"type": "Feature", "properties": {"dest_name": "TK HAFIDZAN LESTARI", "category": "education", "node_id": 7604897879, "dest_id": 196}, "geometry": {"type": "Point", "coordinates": [103.5782661, -1.6316763]}}, {"type": "Feature", "properties": {"dest_name": "TK RCC Pinang Merah", "category": "education", "node_id": 6168557823, "dest_id": 197}, "geometry": {"type": "Point", "coordinates": [103.5519844, -1.6604875]}}, {"type": "Feature", "properties": {"dest_name": "Tk Al-Hikmah", "category": "education", "node_id": 4268853831, "dest_id": 198}, "geometry": {"type": "Point", "coordinates": [103.5834692, -1.6450375]}}, {"type": "Feature", "properties": {"dest_name": "Ma'had Al-Khair Wa Al-Barakah kota Jambi", "category": "education", "node_id": 12686955098, "dest_id": 199}, "geometry": {"type": "Point", "coordinates": [103.61470540000002, -1.5994025]}}, {"type": "Feature", "properties": {"dest_name": "Tk Adz-Dzurriyat", "category": "education", "node_id": 6472396646, "dest_id": 200}, "geometry": {"type": "Point", "coordinates": [103.5655876, -1.6285227]}}, {"type": "Feature", "properties": {"dest_name": "Sekolah Dasar Negeri 178 / IV Kota Jambi", "category": "education", "node_id": 5126813034, "dest_id": 201}, "geometry": {"type": "Point", "coordinates": [103.6227299, -1.6246977]}}, {"type": "Feature", "properties": {"dest_name": "Yayasan Tarbiyah - Perti Provinsi Jambi MI MTS Tarbiyah Islamiyah", "category": "education", "node_id": 4791450358, "dest_id": 202}, "geometry": {"type": "Point", "coordinates": [103.6190242, -1.6153034]}}, {"type": "Feature", "properties": {"dest_name": "Sekolah Al Fikri Jambi", "category": "education", "node_id": 6129936973, "dest_id": 203}, "geometry": {"type": "Point", "coordinates": [103.61838, -1.613375]}}, {"type": "Feature", "properties": {"dest_name": "SDN 105 Jambi", "category": "education", "node_id": 6129972316, "dest_id": 204}, "geometry": {"type": "Point", "coordinates": [103.6170945, -1.6220202]}}, {"type": "Feature", "properties": {"dest_name": "Akademi Kebidanan Jakarta Mitra Sejahtera", "category": "education", "node_id": 5126813042, "dest_id": 205}, "geometry": {"type": "Point", "coordinates": [103.6237786, -1.6288665]}}, {"type": "Feature", "properties": {"dest_name": "TK PELANGI NUSANTARA", "category": "education", "node_id": 5715948324, "dest_id": 206}, "geometry": {"type": "Point", "coordinates": [103.6065129, -1.6105129]}}, {"type": "Feature", "properties": {"dest_name": "KB-TK Superkids Jelutung", "category": "education", "node_id": 11038316487, "dest_id": 207}, "geometry": {"type": "Point", "coordinates": [103.6153796, -1.6043351]}}, {"type": "Feature", "properties": {"dest_name": "Asrama STIKes Garuda Putih", "category": "education", "node_id": 6135478562, "dest_id": 208}, "geometry": {"type": "Point", "coordinates": [103.6250354, -1.5935279]}}, {"type": "Feature", "properties": {"dest_name": "SDN 48", "category": "education", "node_id": 7594849855, "dest_id": 209}, "geometry": {"type": "Point", "coordinates": [103.5786815, -1.5831266]}}, {"type": "Feature", "properties": {"dest_name": "Sekolah Dasar Negeri 70/IV", "category": "education", "node_id": 11850366661, "dest_id": 210}, "geometry": {"type": "Point", "coordinates": [103.5848305, -1.5846079]}}, {"type": "Feature", "properties": {"dest_name": "SDIT Jambi Islamic School", "category": "education", "node_id": 6131888110, "dest_id": 211}, "geometry": {"type": "Point", "coordinates": [103.6090012, -1.6255681]}}, {"type": "Feature", "properties": {"dest_name": "Sekolah Dayung Habibah", "category": "education", "node_id": 5715948356, "dest_id": 212}, "geometry": {"type": "Point", "coordinates": [103.5946711, -1.5959698]}}, {"type": "Feature", "properties": {"dest_name": "SD Negeri 60 / IV", "category": "education", "node_id": 6130055464, "dest_id": 213}, "geometry": {"type": "Point", "coordinates": [103.6357122, -1.5860527]}}, {"type": "Feature", "properties": {"dest_name": "SDN 127 / IV", "category": "education", "node_id": 7608312464, "dest_id": 214}, "geometry": {"type": "Point", "coordinates": [103.6116194, -1.5749838]}}, {"type": "Feature", "properties": {"dest_name": "Sekolah Dasar Negeri 54/IV Olak Kemang", "category": "education", "node_id": 7611109829, "dest_id": 215}, "geometry": {"type": "Point", "coordinates": [103.6024731, -1.5796875]}}, {"type": "Feature", "properties": {"dest_name": "Akademi Keperawatan Gapu", "category": "education", "node_id": 6742977683, "dest_id": 216}, "geometry": {"type": "Point", "coordinates": [103.6184513, -1.5922659]}}, {"type": "Feature", "properties": {"dest_name": "Kursus Jahit FA SEKOLAH MODE JAMBI", "category": "education", "node_id": 5122353987, "dest_id": 217}, "geometry": {"type": "Point", "coordinates": [103.61813160000001, -1.5981151]}}, {"type": "Feature", "properties": {"dest_name": "Pesantren Ar-riyadh", "category": "education", "node_id": 7673173673, "dest_id": 218}, "geometry": {"type": "Point", "coordinates": [103.627497, -1.5642607]}}, {"type": "Feature", "properties": {"dest_name": "Pondok Pesantren Al Mubarok Kota Jambi", "category": "education", "node_id": 5126812771, "dest_id": 219}, "geometry": {"type": "Point", "coordinates": [103.6231441, -1.5714229]}}, {"type": "Feature", "properties": {"dest_name": "SDN 10 Kota Jambi", "category": "education", "node_id": 7611921806, "dest_id": 220}, "geometry": {"type": "Point", "coordinates": [103.6218016, -1.5699599]}}, {"type": "Feature", "properties": {"dest_name": "SD negeri 17", "category": "education", "node_id": 7611921698, "dest_id": 221}, "geometry": {"type": "Point", "coordinates": [103.6266944, -1.5771098]}}, {"type": "Feature", "properties": {"dest_name": "Sekolah Dasar Negeri 191/IV Kota Jambi", "category": "education", "node_id": 13077582948, "dest_id": 222}, "geometry": {"type": "Point", "coordinates": [103.629692, -1.5964601]}}, {"type": "Feature", "properties": {"dest_name": "Madrasah Ibtidaiyah Nurun Janah", "category": "education", "node_id": 6129985169, "dest_id": 223}, "geometry": {"type": "Point", "coordinates": [103.6015822, -1.5740692]}}, {"type": "Feature", "properties": {"dest_name": "Shs Preschool", "category": "education", "node_id": 7588337310, "dest_id": 224}, "geometry": {"type": "Point", "coordinates": [103.6136226, -1.5930779]}}, {"type": "Feature", "properties": {"dest_name": "TK Darul Aminah Jambi", "category": "education", "node_id": 6130450824, "dest_id": 225}, "geometry": {"type": "Point", "coordinates": [103.58809210000001, -1.6300837]}}, {"type": "Feature", "properties": {"dest_name": "TK. SANDHI PUTRA MAKMUR", "category": "education", "node_id": 5143621164, "dest_id": 226}, "geometry": {"type": "Point", "coordinates": [103.6171655, -1.5895364]}}, {"type": "Feature", "properties": {"dest_name": "State Primary School 86 / IV", "category": "education", "node_id": 6476959207, "dest_id": 227}, "geometry": {"type": "Point", "coordinates": [103.6380844, -1.600875]}}, {"type": "Feature", "properties": {"dest_name": "State Primary School 140 / IV", "category": "education", "node_id": 7588641049, "dest_id": 228}, "geometry": {"type": "Point", "coordinates": [103.6355254, -1.6032779]}}, {"type": "Feature", "properties": {"dest_name": "SDN 121/IV KOTA JAMBI", "category": "education", "node_id": 6080861224, "dest_id": 229}, "geometry": {"type": "Point", "coordinates": [103.63462050000001, -1.5962781]}}, {"type": "Feature", "properties": {"dest_name": "Yayasan SMP-SMU At Taufik", "category": "education", "node_id": 6487338586, "dest_id": 230}, "geometry": {"type": "Point", "coordinates": [103.6286871, -1.6026299]}}, {"type": "Feature", "properties": {"dest_name": "Pilihan selain SMP 23", "category": "education", "node_id": 6129949180, "dest_id": 231}, "geometry": {"type": "Point", "coordinates": [103.6491865, -1.5652637]}}, {"type": "Feature", "properties": {"dest_name": "SD Negeri 33/IV Kota Jambi", "category": "education", "node_id": 13077678360, "dest_id": 232}, "geometry": {"type": "Point", "coordinates": [103.61040190000001, -1.6010469]}}, {"type": "Feature", "properties": {"dest_name": "SD Negeri 082/IV Kota Jambi", "category": "education", "node_id": 6130547338, "dest_id": 233}, "geometry": {"type": "Point", "coordinates": [103.6454688, -1.5715988]}}, {"type": "Feature", "properties": {"dest_name": "SD Negeri 86 Kota Jambi", "category": "education", "node_id": 6130814883, "dest_id": 234}, "geometry": {"type": "Point", "coordinates": [103.6260757, -1.5894495]}}, {"type": "Feature", "properties": {"dest_name": "Sekolah Dasar Islam Terpadu Al-Faqih", "category": "education", "node_id": 6131745042, "dest_id": 235}, "geometry": {"type": "Point", "coordinates": [103.6460579, -1.60818]}}, {"type": "Feature", "properties": {"dest_name": "Sekolah Dasar Negeri 193/IV Kota Jambi", "category": "education", "node_id": 7621835174, "dest_id": 236}, "geometry": {"type": "Point", "coordinates": [103.6210558, -1.5898193]}}, {"type": "Feature", "properties": {"dest_name": "SDN 158 TANJUNG SARI, KOTA JAMBI", "category": "education", "node_id": 12686440440, "dest_id": 237}, "geometry": {"type": "Point", "coordinates": [103.6387029, -1.591137]}}, {"type": "Feature", "properties": {"dest_name": "SDN 190/IV Kota Jambi.rayon 23 jambi", "category": "education", "node_id": 7611969805, "dest_id": 238}, "geometry": {"type": "Point", "coordinates": [103.62668510000002, -1.5833667]}}, {"type": "Feature", "properties": {"dest_name": "SD Negeri 192/IV Kota Jambi", "category": "education", "node_id": 6080861329, "dest_id": 239}, "geometry": {"type": "Point", "coordinates": [103.6336654, -1.6017061]}}, {"type": "Feature", "properties": {"dest_name": "Sekolah Dasar Negeri 164/IV Kota Jambi", "category": "education", "node_id": 6130722783, "dest_id": 240}, "geometry": {"type": "Point", "coordinates": [103.6226833, -1.58626]}}, {"type": "Feature", "properties": {"dest_name": "SDN 13/IV", "category": "education", "node_id": 6135477876, "dest_id": 241}, "geometry": {"type": "Point", "coordinates": [103.63117, -1.591035]}}, {"type": "Feature", "properties": {"dest_name": "SD Negeri 197 Kota Jambi", "category": "education", "node_id": 6476960266, "dest_id": 242}, "geometry": {"type": "Point", "coordinates": [103.6393819, -1.5877252]}}, {"type": "Feature", "properties": {"dest_name": "Sekolah Dasar Negeri 188/IV Kota Jambi", "category": "education", "node_id": 12686640441, "dest_id": 243}, "geometry": {"type": "Point", "coordinates": [103.6265719, -1.6094228]}}, {"type": "Feature", "properties": {"dest_name": "SDN 059/IV Jambi", "category": "education", "node_id": 7621716558, "dest_id": 244}, "geometry": {"type": "Point", "coordinates": [103.6251588, -1.5988893]}}, {"type": "Feature", "properties": {"dest_name": "Sekolah Menengah Umum PGRI 3 Jambi", "category": "education", "node_id": 6135414394, "dest_id": 245}, "geometry": {"type": "Point", "coordinates": [103.6519388, -1.6293578]}}, {"type": "Feature", "properties": {"dest_name": "Tukang gigi SMA 3", "category": "education", "node_id": 5126809797, "dest_id": 246}, "geometry": {"type": "Point", "coordinates": [103.6208458, -1.6153301]}}, {"type": "Feature", "properties": {"dest_name": "SDN 062/IV", "category": "education", "node_id": 6135296934, "dest_id": 247}, "geometry": {"type": "Point", "coordinates": [103.6373388, -1.5899477]}}, {"type": "Feature", "properties": {"dest_name": "Madrasah Al-Musthofa", "category": "education", "node_id": 6135124483, "dest_id": 248}, "geometry": {"type": "Point", "coordinates": [103.633531, -1.5980735]}}, {"type": "Feature", "properties": {"dest_name": "Madrasah Tsanawiyah Azaz Islamiyah", "category": "education", "node_id": 6130054964, "dest_id": 249}, "geometry": {"type": "Point", "coordinates": [103.6411075, -1.5902717]}}, {"type": "Feature", "properties": {"dest_name": "Madrasah Tsanawiyah Negeri Sijenjang 23", "category": "education", "node_id": 7611969820, "dest_id": 250}, "geometry": {"type": "Point", "coordinates": [103.63248830000002, -1.5720493]}}, {"type": "Feature", "properties": {"dest_name": "SDN 115/IV JAMBI TIMUR", "category": "education", "node_id": 6130055445, "dest_id": 251}, "geometry": {"type": "Point", "coordinates": [103.6351604, -1.5879383]}}, {"type": "Feature", "properties": {"dest_name": "SDN 118 JAMBI TIMUR", "category": "education", "node_id": 7587937004, "dest_id": 252}, "geometry": {"type": "Point", "coordinates": [103.6518715, -1.6028733]}}, {"type": "Feature", "properties": {"dest_name": "SD 224/IV Paal Merah", "category": "education", "node_id": 6129939377, "dest_id": 253}, "geometry": {"type": "Point", "coordinates": [103.6488094, -1.6564903]}}, {"type": "Feature", "properties": {"dest_name": "Citra Nusantara School", "category": "education", "node_id": 6080861261, "dest_id": 254}, "geometry": {"type": "Point", "coordinates": [103.63630550000002, -1.5955222]}}, {"type": "Feature", "properties": {"dest_name": "SD MAITREYAWIRA JAMBI", "category": "education", "node_id": 6135478471, "dest_id": 255}, "geometry": {"type": "Point", "coordinates": [103.6220866, -1.5940543]}}, {"type": "Feature", "properties": {"dest_name": "State Primary School 203 / IV East Jambi", "category": "education", "node_id": 7605117868, "dest_id": 256}, "geometry": {"type": "Point", "coordinates": [103.6366319, -1.6075712]}}, {"type": "Feature", "properties": {"dest_name": "MTS State East Jambi", "category": "education", "node_id": 6129942331, "dest_id": 257}, "geometry": {"type": "Point", "coordinates": [103.642566, -1.5968444]}}, {"type": "Feature", "properties": {"dest_name": "KB-TK Unggul Sakti Jambi", "category": "education", "node_id": 6137152025, "dest_id": 258}, "geometry": {"type": "Point", "coordinates": [103.626727, -1.602685]}}, {"type": "Feature", "properties": {"dest_name": "Rumah Belajar Genius (Les SD-SMP-SMA-KEDINASAN- POLRI-CPNS)", "category": "education", "node_id": 6130037321, "dest_id": 259}, "geometry": {"type": "Point", "coordinates": [103.6498965, -1.6291048]}}, {"type": "Feature", "properties": {"dest_name": "State Primary School 103 / IV", "category": "education", "node_id": 6080859778, "dest_id": 260}, "geometry": {"type": "Point", "coordinates": [103.6269111, -1.6251882]}}, {"type": "Feature", "properties": {"dest_name": "Sekolah Menengah Atas Dharma Bhakti 3 Jambi", "category": "education", "node_id": 6129836715, "dest_id": 261}, "geometry": {"type": "Point", "coordinates": [103.6392011, -1.6190084]}}, {"type": "Feature", "properties": {"dest_name": "High School Megatama Jambi City", "category": "education", "node_id": 6130052431, "dest_id": 262}, "geometry": {"type": "Point", "coordinates": [103.6624962, -1.6256832]}}, {"type": "Feature", "properties": {"dest_name": "Sekolah Menengah Pertama Dwi Tunggal Jambi", "category": "education", "node_id": 5162151135, "dest_id": 263}, "geometry": {"type": "Point", "coordinates": [103.6694001, -1.6357963]}}, {"type": "Feature", "properties": {"dest_name": "Sekolah Menengah Pertama Yadika Jambi", "category": "education", "node_id": 6484911016, "dest_id": 264}, "geometry": {"type": "Point", "coordinates": [103.6329333, -1.6473156]}}, {"type": "Feature", "properties": {"dest_name": "SMP ALAM AL FATH", "category": "education", "node_id": 6486218703, "dest_id": 265}, "geometry": {"type": "Point", "coordinates": [103.6807107, -1.6184627]}}, {"type": "Feature", "properties": {"dest_name": "Sekolah Dasar Negeri 138 / IV Kota Jambi", "category": "education", "node_id": 6259366686, "dest_id": 266}, "geometry": {"type": "Point", "coordinates": [103.6167148, -1.6181571]}}, {"type": "Feature", "properties": {"dest_name": "Sekolah Dasar Negeri 160/IV Kota Jambi", "category": "education", "node_id": 5714168292, "dest_id": 267}, "geometry": {"type": "Point", "coordinates": [103.6383104, -1.6048941]}}, {"type": "Feature", "properties": {"dest_name": "Sekolah Dasar Negeri 61/IV Jambi Timur", "category": "education", "node_id": 6080862312, "dest_id": 268}, "geometry": {"type": "Point", "coordinates": [103.6332417, -1.6070728]}}, {"type": "Feature", "properties": {"dest_name": "State Primary School 114 / IV", "category": "education", "node_id": 6129841599, "dest_id": 269}, "geometry": {"type": "Point", "coordinates": [103.6238589, -1.6431604]}}, {"type": "Feature", "properties": {"dest_name": "Institut Islam Ma'arif (INISMA) Jambi", "category": "education", "node_id": 5162150615, "dest_id": 270}, "geometry": {"type": "Point", "coordinates": [103.6564974, -1.636828]}}, {"type": "Feature", "properties": {"dest_name": "SD-SMA Karunia Global School", "category": "education", "node_id": 6129972383, "dest_id": 271}, "geometry": {"type": "Point", "coordinates": [103.619945, -1.627441]}}, {"type": "Feature", "properties": {"dest_name": "SD N 76/IV Jelutung kota Jambi", "category": "education", "node_id": 6735353425, "dest_id": 272}, "geometry": {"type": "Point", "coordinates": [103.6066831, -1.6160969]}}, {"type": "Feature", "properties": {"dest_name": "Sekolah Dasar Negeri 126 / IV Kota Jambi", "category": "education", "node_id": 6080862137, "dest_id": 273}, "geometry": {"type": "Point", "coordinates": [103.6411781, -1.6178422]}}, {"type": "Feature", "properties": {"dest_name": "State Primary School 79 / IV Jambi", "category": "education", "node_id": 6476959509, "dest_id": 274}, "geometry": {"type": "Point", "coordinates": [103.6579864, -1.61344]}}, {"type": "Feature", "properties": {"dest_name": "SEKOLAH PENGGERAK SD INSAN MADANI JAMBI", "category": "education", "node_id": 6265017734, "dest_id": 275}, "geometry": {"type": "Point", "coordinates": [103.61675120000001, -1.625925]}}, {"type": "Feature", "properties": {"dest_name": "Sekolah Dasar Negeri 77 / IV Kota Jambi", "category": "education", "node_id": 12231051857, "dest_id": 276}, "geometry": {"type": "Point", "coordinates": [103.6209879, -1.6325131]}}, {"type": "Feature", "properties": {"dest_name": "Sekolah Dasar Negeri 78/IV Jambi", "category": "education", "node_id": 6130037647, "dest_id": 277}, "geometry": {"type": "Point", "coordinates": [103.6428077, -1.6243628]}}, {"type": "Feature", "properties": {"dest_name": "Sekolah Unggul Sakti Talang Banjar", "category": "education", "node_id": 6259339171, "dest_id": 278}, "geometry": {"type": "Point", "coordinates": [103.6355091, -1.6096729]}}, {"type": "Feature", "properties": {"dest_name": "Akademi Telekomunikasi Indonesia", "category": "education", "node_id": 6259103175, "dest_id": 279}, "geometry": {"type": "Point", "coordinates": [103.6309469, -1.6220131]}}, {"type": "Feature", "properties": {"dest_name": "STIKES Kesehatan Keluarga Bunda", "category": "education", "node_id": 5356576164, "dest_id": 280}, "geometry": {"type": "Point", "coordinates": [103.66065070000002, -1.6359473]}}, {"type": "Feature", "properties": {"dest_name": "Guang Ming School", "category": "education", "node_id": 7607474839, "dest_id": 281}, "geometry": {"type": "Point", "coordinates": [103.63527110000001, -1.6197465]}}, {"type": "Feature", "properties": {"dest_name": "Stella Maris School", "category": "education", "node_id": 7621889073, "dest_id": 282}, "geometry": {"type": "Point", "coordinates": [103.62894230000002, -1.6064029]}}, {"type": "Feature", "properties": {"dest_name": "Pelita Raya School", "category": "education", "node_id": 11024114831, "dest_id": 283}, "geometry": {"type": "Point", "coordinates": [103.64697, -1.619667]}}, {"type": "Feature", "properties": {"dest_name": "RA/MI MAHABBATULLAH I", "category": "education", "node_id": 6481120282, "dest_id": 284}, "geometry": {"type": "Point", "coordinates": [103.6687889, -1.6146833]}}, {"type": "Feature", "properties": {"dest_name": "Madrasah Tsanawiyah Muhammadiyah", "category": "education", "node_id": 6130012443, "dest_id": 285}, "geometry": {"type": "Point", "coordinates": [103.6232801, -1.6126637]}}, {"type": "Feature", "properties": {"dest_name": "Madrasah Tsanawiyah Al Hidayah Talang bakung", "category": "education", "node_id": 5059581608, "dest_id": 286}, "geometry": {"type": "Point", "coordinates": [103.624635, -1.659562]}}, {"type": "Feature", "properties": {"dest_name": "Madrasah Tsanawiyah Talang Bakung", "category": "education", "node_id": 6130182495, "dest_id": 287}, "geometry": {"type": "Point", "coordinates": [103.6507431, -1.631111]}}, {"type": "Feature", "properties": {"dest_name": "Madrasah Tsanawiyah Nurul Hidayah Jambi (MTs.-NHJ)", "category": "education", "node_id": 13077803645, "dest_id": 288}, "geometry": {"type": "Point", "coordinates": [103.6681595, -1.6382295]}}, {"type": "Feature", "properties": {"dest_name": "PG-TK-SD Islam Attaufiq Jambi Plus Tahfizh", "category": "education", "node_id": 5122352884, "dest_id": 289}, "geometry": {"type": "Point", "coordinates": [103.623491, -1.591886]}}, {"type": "Feature", "properties": {"dest_name": "SEKOLAH ISLAM AN NAAFI KOTA JAMBI", "category": "education", "node_id": 10273486651, "dest_id": 290}, "geometry": {"type": "Point", "coordinates": [103.6494492, -1.6209027]}}, {"type": "Feature", "properties": {"dest_name": "sekolah", "category": "education", "node_id": 6080862026, "dest_id": 291}, "geometry": {"type": "Point", "coordinates": [103.643469, -1.6193184]}}, {"type": "Feature", "properties": {"dest_name": "Junior High School YKP Pertamina", "category": "education", "node_id": 6134694497, "dest_id": 292}, "geometry": {"type": "Point", "coordinates": [103.6168789, -1.6448311]}}, {"type": "Feature", "properties": {"dest_name": "Islamic Junior High School Al - Ikhlas", "category": "education", "node_id": 6077414350, "dest_id": 293}, "geometry": {"type": "Point", "coordinates": [103.585837, -1.6461927]}}, {"type": "Feature", "properties": {"dest_name": "Smpn 8jambi", "category": "education", "node_id": 6130546461, "dest_id": 294}, "geometry": {"type": "Point", "coordinates": [103.5991784, -1.6295479]}}, {"type": "Feature", "properties": {"dest_name": "SDN 221 PAALMERAH KOTA JAMBI", "category": "education", "node_id": 7577452206, "dest_id": 295}, "geometry": {"type": "Point", "coordinates": [103.6324815, -1.6516391]}}, {"type": "Feature", "properties": {"dest_name": "Sekolah Dasar Negeri 155/IV Jambi Selatan", "category": "education", "node_id": 6080862071, "dest_id": 296}, "geometry": {"type": "Point", "coordinates": [103.6390979, -1.6135783]}}, {"type": "Feature", "properties": {"dest_name": "State Primary School 111 / IV South Jambi", "category": "education", "node_id": 6130021857, "dest_id": 297}, "geometry": {"type": "Point", "coordinates": [103.6596529, -1.6414169]}}, {"type": "Feature", "properties": {"dest_name": "Schools El Mundo", "category": "education", "node_id": 6129836752, "dest_id": 298}, "geometry": {"type": "Point", "coordinates": [103.6409499, -1.6281265]}}, {"type": "Feature", "properties": {"dest_name": "SDN 156/IV Jambi", "category": "education", "node_id": 6261052027, "dest_id": 299}, "geometry": {"type": "Point", "coordinates": [103.6094702, -1.6206994]}}, {"type": "Feature", "properties": {"dest_name": "State Primary School 207 / IV", "category": "education", "node_id": 5766734132, "dest_id": 300}, "geometry": {"type": "Point", "coordinates": [103.6346778, -1.6437266]}}, {"type": "Feature", "properties": {"dest_name": "SMK PGRI 4 Jambi", "category": "education", "node_id": 6135340296, "dest_id": 301}, "geometry": {"type": "Point", "coordinates": [103.6407045, -1.5925617]}}, {"type": "Feature", "properties": {"dest_name": "Edotel SMK Negeri 4 Kota Jambi", "category": "education", "node_id": 12235854479, "dest_id": 302}, "geometry": {"type": "Point", "coordinates": [103.5949829, -1.610703]}}, {"type": "Feature", "properties": {"dest_name": "SMK DHARMA BAKTI 1 SIMPANG RIMBO", "category": "education", "node_id": 7588581619, "dest_id": 303}, "geometry": {"type": "Point", "coordinates": [103.5474382, -1.6235902]}}, {"type": "Feature", "properties": {"dest_name": "SMK DB 1 Kota Jambi", "category": "education", "node_id": 6168570092, "dest_id": 304}, "geometry": {"type": "Point", "coordinates": [103.5490366, -1.6258403]}}, {"type": "Feature", "properties": {"dest_name": "SD & SMP IT Pelita Doktora", "category": "education", "node_id": 12105454131, "dest_id": 305}, "geometry": {"type": "Point", "coordinates": [103.5563752, -1.6661894]}}, {"type": "Feature", "properties": {"dest_name": "State Primary School 145 / IV Jambi", "category": "education", "node_id": 6135578875, "dest_id": 306}, "geometry": {"type": "Point", "coordinates": [103.5862439, -1.640247]}}, {"type": "Feature", "properties": {"dest_name": "QQ Smart (Bimbel SD, SMP dan SMA)", "category": "education", "node_id": 6168022628, "dest_id": 307}, "geometry": {"type": "Point", "coordinates": [103.5667362, -1.6611325]}}, {"type": "Feature", "properties": {"dest_name": "SD QUR'AN AN-NAJIHAH", "category": "education", "node_id": 6130546450, "dest_id": 308}, "geometry": {"type": "Point", "coordinates": [103.59235, -1.620951]}}, {"type": "Feature", "properties": {"dest_name": "Senior High School 9 Jambi", "category": "education", "node_id": 6131908509, "dest_id": 309}, "geometry": {"type": "Point", "coordinates": [103.6507068, -1.5916312]}}, {"type": "Feature", "properties": {"dest_name": "Sekolah Dasar Negeri 57/IV Kota Jambi", "category": "education", "node_id": 6130048650, "dest_id": 310}, "geometry": {"type": "Point", "coordinates": [103.6283935, -1.6274237]}}, {"type": "Feature", "properties": {"dest_name": "SDN 206 KOTA JAMBI", "category": "education", "node_id": 6472396720, "dest_id": 311}, "geometry": {"type": "Point", "coordinates": [103.5544214, -1.6318486]}}, {"type": "Feature", "properties": {"dest_name": "SD Negeri 222 Kota Jambi", "category": "education", "node_id": 5722942884, "dest_id": 312}, "geometry": {"type": "Point", "coordinates": [103.5478466, -1.6136512]}}, {"type": "Feature", "properties": {"dest_name": "State Primary School 225 / IV", "category": "education", "node_id": 7648335459, "dest_id": 313}, "geometry": {"type": "Point", "coordinates": [103.6192474, -1.6776193]}}, {"type": "Feature", "properties": {"dest_name": "State Primary School 130 / IV", "category": "education", "node_id": 6077420181, "dest_id": 314}, "geometry": {"type": "Point", "coordinates": [103.57300770000002, -1.6447176]}}, {"type": "Feature", "properties": {"dest_name": "State Primary School 217 / IV", "category": "education", "node_id": 6130448545, "dest_id": 315}, "geometry": {"type": "Point", "coordinates": [103.5900637, -1.6572945]}}, {"type": "Feature", "properties": {"dest_name": "SD NEGERI 64 MAYANG", "category": "education", "node_id": 3506251634, "dest_id": 316}, "geometry": {"type": "Point", "coordinates": [103.5853883, -1.6336592]}}, {"type": "Feature", "properties": {"dest_name": "State Primary School 216 / IV", "category": "education", "node_id": 7608545296, "dest_id": 317}, "geometry": {"type": "Point", "coordinates": [103.5969688, -1.6626403]}}, {"type": "Feature", "properties": {"dest_name": "SD Negeri 214/IV Kota Jambi", "category": "education", "node_id": 6475887592, "dest_id": 318}, "geometry": {"type": "Point", "coordinates": [103.6003125, -1.6675625]}}, {"type": "Feature", "properties": {"dest_name": "Sekolah Dasar Negeri 223/IV Kota Jambi", "category": "education", "node_id": 6168941935, "dest_id": 319}, "geometry": {"type": "Point", "coordinates": [103.5441432, -1.6527402]}}, {"type": "Feature", "properties": {"dest_name": "Sekolah Dasar Negeri 132/IV Kota Jambi", "category": "education", "node_id": 6080859709, "dest_id": 320}, "geometry": {"type": "Point", "coordinates": [103.6106998, -1.6363035]}}, {"type": "Feature", "properties": {"dest_name": "Sekolah Dasar Negeri 99/IV Kota Jambi", "category": "education", "node_id": 6136234029, "dest_id": 321}, "geometry": {"type": "Point", "coordinates": [103.6211233, -1.6466303]}}, {"type": "Feature", "properties": {"dest_name": "Sekolah Dasar Negeri 212/IV Kota Jambi", "category": "education", "node_id": 6098927114, "dest_id": 322}, "geometry": {"type": "Point", "coordinates": [103.5947985, -1.6521306]}}, {"type": "Feature", "properties": {"dest_name": "Sekolah Dasar Negeri 215/IV Kota Jambi", "category": "education", "node_id": 6130663409, "dest_id": 323}, "geometry": {"type": "Point", "coordinates": [103.6187784, -1.6571172]}}, {"type": "Feature", "properties": {"dest_name": "Fakultas Ekonomi dan Bisnis Islam \"UIN STS Jambi\"", "category": "education", "node_id": 6167840530, "dest_id": 324}, "geometry": {"type": "Point", "coordinates": [103.5749901, -1.6149246]}}, {"type": "Feature", "properties": {"dest_name": "UNIVERSITAS SUMOBOLA", "category": "education", "node_id": 5722942401, "dest_id": 325}, "geometry": {"type": "Point", "coordinates": [103.5855212, -1.6312005]}}, {"type": "Feature", "properties": {"dest_name": "UNAMA (Kampus Kotabaru)", "category": "education", "node_id": 7568133592, "dest_id": 326}, "geometry": {"type": "Point", "coordinates": [103.614928, -1.6416138]}}, {"type": "Feature", "properties": {"dest_name": "Akademi Sekretaris Dan Manajemen Jambi", "category": "education", "node_id": 5715948124, "dest_id": 327}, "geometry": {"type": "Point", "coordinates": [103.5975457, -1.6182459]}}, {"type": "Feature", "properties": {"dest_name": "Faculty of Medicine and Health Sciences", "category": "education", "node_id": 5723003702, "dest_id": 328}, "geometry": {"type": "Point", "coordinates": [103.5783416, -1.5999861]}}, {"type": "Feature", "properties": {"dest_name": "Sekolah Dasar Negeri No.148/IV Kota Jambi", "category": "education", "node_id": 6080860821, "dest_id": 329}, "geometry": {"type": "Point", "coordinates": [103.6054795, -1.6336004]}}, {"type": "Feature", "properties": {"dest_name": "STIKES Harapan Ibu Jambi", "category": "education", "node_id": 4791532242, "dest_id": 330}, "geometry": {"type": "Point", "coordinates": [103.6243543, -1.6062902]}}, {"type": "Feature", "properties": {"dest_name": "Muhammadiyah Jambi University", "category": "education", "node_id": 6471674409, "dest_id": 331}, "geometry": {"type": "Point", "coordinates": [103.5784384, -1.6190361]}}, {"type": "Feature", "properties": {"dest_name": "Universitas Terbuka Jambi", "category": "education", "node_id": 12281926010, "dest_id": 332}, "geometry": {"type": "Point", "coordinates": [103.6062507, -1.612444]}}, {"type": "Feature", "properties": {"dest_name": "Kampus Institut Teknologi dan Sains Nahdlatul Ulama (ITSNU) Jambi", "category": "education", "node_id": 7568506332, "dest_id": 333}, "geometry": {"type": "Point", "coordinates": [103.5778019, -1.6217793]}}, {"type": "Feature", "properties": {"dest_name": "College of Health Sciences Baiturrahim Jambi", "category": "education", "node_id": 5715948307, "dest_id": 334}, "geometry": {"type": "Point", "coordinates": [103.6058589, -1.6060772]}}, {"type": "Feature", "properties": {"dest_name": "Siplah CV BIMA SAKTI, Peralatan Sekolah", "category": "education", "node_id": 5715948118, "dest_id": 335}, "geometry": {"type": "Point", "coordinates": [103.6019092, -1.6302536]}}, {"type": "Feature", "properties": {"dest_name": "MTsN 5 Kenali Besar Kota Jambi", "category": "education", "node_id": 6168942230, "dest_id": 336}, "geometry": {"type": "Point", "coordinates": [103.5517122, -1.6476859]}}, {"type": "Feature", "properties": {"dest_name": "Madrasah Tsanawiyah Nur Ma'arif Kota Jambi", "category": "education", "node_id": 7595168829, "dest_id": 337}, "geometry": {"type": "Point", "coordinates": [103.6624415, -1.6425575]}}, {"type": "Feature", "properties": {"dest_name": "Madrasah Tsanawiyah Negeri Kenali Besar", "category": "education", "node_id": 6130551552, "dest_id": 338}, "geometry": {"type": "Point", "coordinates": [103.5828631, -1.6678531]}}, {"type": "Feature", "properties": {"dest_name": "Madrasah SAKINAH", "category": "education", "node_id": 6077420583, "dest_id": 339}, "geometry": {"type": "Point", "coordinates": [103.5658934, -1.6576472]}}, {"type": "Feature", "properties": {"dest_name": "Madrasah Tsanawiyah Kenali Besar", "category": "education", "node_id": 6077322717, "dest_id": 340}, "geometry": {"type": "Point", "coordinates": [103.5784012, -1.6386956]}}, {"type": "Feature", "properties": {"dest_name": "Madrasah Nurul Iman Kenali Asam Atas", "category": "education", "node_id": 7577215208, "dest_id": 341}, "geometry": {"type": "Point", "coordinates": [103.6154559, -1.6545351]}}, {"type": "Feature", "properties": {"dest_name": "Madrasah Ziadatul Iman", "category": "education", "node_id": 6167997503, "dest_id": 342}, "geometry": {"type": "Point", "coordinates": [103.5556503, -1.6437845]}}, {"type": "Feature", "properties": {"dest_name": "Madrasah Ibtidaiyah PKP Al- Hidayah", "category": "education", "node_id": 6135425327, "dest_id": 343}, "geometry": {"type": "Point", "coordinates": [103.6004241, -1.6513338]}}, {"type": "Feature", "properties": {"dest_name": "MI Nurul Musthafa", "category": "education", "node_id": 6259114776, "dest_id": 344}, "geometry": {"type": "Point", "coordinates": [103.593095, -1.6625852]}}, {"type": "Feature", "properties": {"dest_name": "SMK SEMBILAN LURAH 1", "category": "education", "node_id": 6077321525, "dest_id": 345}, "geometry": {"type": "Point", "coordinates": [103.5688478, -1.63232]}}, {"type": "Feature", "properties": {"dest_name": "Sekolah Dasar Negeri 151 Kota Jambi", "category": "education", "node_id": 6077420247, "dest_id": 346}, "geometry": {"type": "Point", "coordinates": [103.5674809, -1.6456462]}}, {"type": "Feature", "properties": {"dest_name": "Lentera Bestari Sasana School", "category": "education", "node_id": 6130546672, "dest_id": 347}, "geometry": {"type": "Point", "coordinates": [103.5964939, -1.6266735]}}, {"type": "Feature", "properties": {"dest_name": "Politeknik Jambi", "category": "education", "node_id": 6168942242, "dest_id": 348}, "geometry": {"type": "Point", "coordinates": [103.5541471, -1.6413461]}}, {"type": "Feature", "properties": {"dest_name": "SD Negeri 98 Kota Jambi", "category": "education", "node_id": 6098930094, "dest_id": 349}, "geometry": {"type": "Point", "coordinates": [103.6008923, -1.6408491]}}, {"type": "Feature", "properties": {"dest_name": "SDN Jambi Baru", "category": "education", "node_id": 3506258507, "dest_id": 350}, "geometry": {"type": "Point", "coordinates": [103.5890169, -1.6448754]}}, {"type": "Feature", "properties": {"dest_name": "PAUD HALIMATUSADIAH", "category": "education", "node_id": 6077419840, "dest_id": 351}, "geometry": {"type": "Point", "coordinates": [103.6007241, -1.6360329]}}, {"type": "Feature", "properties": {"dest_name": "TK dan MI Darul Arifin Jambi", "category": "education", "node_id": 6130580881, "dest_id": 352}, "geometry": {"type": "Point", "coordinates": [103.6065403, -1.6493291]}}, {"type": "Feature", "properties": {"dest_name": "SMA Negeri 12 Kota Jambi", "category": "education", "node_id": 6168641248, "dest_id": 353}, "geometry": {"type": "Point", "coordinates": [103.5537795, -1.6212832]}}, {"type": "Feature", "properties": {"dest_name": "SMK TEKNOLOGI PENERBANGAN INDONESIA JAMBI", "category": "education", "node_id": 9659643911, "dest_id": 354}, "geometry": {"type": "Point", "coordinates": [103.5961558, -1.6575679]}}, {"type": "Feature", "properties": {"dest_name": "SMK PGRI 1 Jambi", "category": "education", "node_id": 5143620970, "dest_id": 355}, "geometry": {"type": "Point", "coordinates": [103.6009617, -1.596808]}}, {"type": "Feature", "properties": {"dest_name": "School SMK Al-Irsyad Al-Islamiyya Jambi", "category": "education", "node_id": 6130558105, "dest_id": 356}, "geometry": {"type": "Point", "coordinates": [103.6363201, -1.6493683]}}, {"type": "Feature", "properties": {"dest_name": "SMP DB 6 Jambi", "category": "education", "node_id": 6129939110, "dest_id": 357}, "geometry": {"type": "Point", "coordinates": [103.6121362, -1.6179954]}}, {"type": "Feature", "properties": {"dest_name": "SMK JAMBI IX LURAH 2", "category": "education", "node_id": 6134377623, "dest_id": 358}, "geometry": {"type": "Point", "coordinates": [103.5876021, -1.6161701]}}, {"type": "Feature", "properties": {"dest_name": "SMK TARUNA INDONESIA JAMBI", "category": "education", "node_id": 6130396067, "dest_id": 359}, "geometry": {"type": "Point", "coordinates": [103.6023939, -1.6491095]}}, {"type": "Feature", "properties": {"dest_name": "Vocational School Batanghari", "category": "education", "node_id": 6167880965, "dest_id": 360}, "geometry": {"type": "Point", "coordinates": [103.5731978, -1.63003]}}, {"type": "Feature", "properties": {"dest_name": "School SMK Negeri 5 Kota Jambi", "category": "education", "node_id": 3444335142, "dest_id": 361}, "geometry": {"type": "Point", "coordinates": [103.5718011, -1.5723685]}}, {"type": "Feature", "properties": {"dest_name": "Sekolah Islam Terpadu Nurul 'Ilmi Jambi", "category": "education", "node_id": 5722942688, "dest_id": 362}, "geometry": {"type": "Point", "coordinates": [103.5614903, -1.6042947]}}, {"type": "Feature", "properties": {"dest_name": "Sekolah Menengah Atas Negeri 8 Kota Jambi", "category": "education", "node_id": 6135371565, "dest_id": 363}, "geometry": {"type": "Point", "coordinates": [103.5988527, -1.6549603]}}, {"type": "Feature", "properties": {"dest_name": "Bina Kasih Christian School Jambi", "category": "education", "node_id": 6080858474, "dest_id": 364}, "geometry": {"type": "Point", "coordinates": [103.6187515, -1.6246151]}}, {"type": "Feature", "properties": {"dest_name": "Sma it almaadinah", "category": "education", "node_id": 6471674249, "dest_id": 365}, "geometry": {"type": "Point", "coordinates": [103.573847, -1.606611]}}, {"type": "Feature", "properties": {"dest_name": "SMPN 15 Kota Jambi", "category": "education", "node_id": 6129942352, "dest_id": 366}, "geometry": {"type": "Point", "coordinates": [103.6486594, -1.5899116]}}, {"type": "Feature", "properties": {"dest_name": "SMA Negeri 1 Kota Jambi", "category": "education", "node_id": 4270169015, "dest_id": 367}, "geometry": {"type": "Point", "coordinates": [103.5923389, -1.6092488]}}, {"type": "Feature", "properties": {"dest_name": "Sekolah Dasar Negeri 92/IV Kota Jambi", "category": "education", "node_id": 7621778839, "dest_id": 368}, "geometry": {"type": "Point", "coordinates": [103.5781566, -1.6043148]}}, {"type": "Feature", "properties": {"dest_name": "SD Terpadu Al-Muthmainnah", "category": "education", "node_id": 6130613011, "dest_id": 369}, "geometry": {"type": "Point", "coordinates": [103.5886513, -1.6226353]}}, {"type": "Feature", "properties": {"dest_name": "Tk & Playgroup AlFatih Kids Jambi", "category": "education", "node_id": 6130144992, "dest_id": 370}, "geometry": {"type": "Point", "coordinates": [103.5847278, -1.6117524]}}, {"type": "Feature", "properties": {"dest_name": "AN NAHL PERCIKAN IMAN - TK IT, KB IT, TASKA IT", "category": "education", "node_id": 6168048351, "dest_id": 371}, "geometry": {"type": "Point", "coordinates": [103.57760250000001, -1.6156307]}}, {"type": "Feature", "properties": {"dest_name": "SMP / SMA Xaverius 2 Jambi", "category": "education", "node_id": 5128992287, "dest_id": 372}, "geometry": {"type": "Point", "coordinates": [103.578784, -1.614143]}}, {"type": "Feature", "properties": {"dest_name": "Bimbel Nurul Fikri Telanaipura", "category": "education", "node_id": 6167881024, "dest_id": 373}, "geometry": {"type": "Point", "coordinates": [103.5763795, -1.6200798]}}, {"type": "Feature", "properties": {"dest_name": "Sekolah Menengah Atas Pertiwi Jambi", "category": "education", "node_id": 6130625684, "dest_id": 374}, "geometry": {"type": "Point", "coordinates": [103.60457620000001, -1.5961675]}}, {"type": "Feature", "properties": {"dest_name": "Sekolah Dasar Negeri 131 / IV Kota Jambi", "category": "education", "node_id": 6167595252, "dest_id": 375}, "geometry": {"type": "Point", "coordinates": [103.5701621, -1.6063159]}}, {"type": "Feature", "properties": {"dest_name": "Madrasah Tsanawiyah An-Nizham", "category": "education", "node_id": 7621445607, "dest_id": 376}, "geometry": {"type": "Point", "coordinates": [103.5746592, -1.6022645]}}, {"type": "Feature", "properties": {"dest_name": "Health Vocational High School Baiturrahim Jambi", "category": "education", "node_id": 5715948296, "dest_id": 377}, "geometry": {"type": "Point", "coordinates": [103.5966276, -1.6126064]}}, {"type": "Feature", "properties": {"dest_name": "State Senior High School 10 Jambi", "category": "education", "node_id": 6178192403, "dest_id": 378}, "geometry": {"type": "Point", "coordinates": [103.5639142, -1.6012423]}}, {"type": "Feature", "properties": {"dest_name": "Sekolah Dasar Negeri 201/IV Telanaipura", "category": "education", "node_id": 6178192441, "dest_id": 379}, "geometry": {"type": "Point", "coordinates": [103.5710111, -1.6102428]}}, {"type": "Feature", "properties": {"dest_name": "Rumah penjaga sekolah", "category": "education", "node_id": 6168048270, "dest_id": 380}, "geometry": {"type": "Point", "coordinates": [103.58578, -1.619085]}}, {"type": "Feature", "properties": {"dest_name": "STIE JAMBI (Sekolah Tinggi Ilmu Ekonomi Jambi)", "category": "education", "node_id": 6167595397, "dest_id": 381}, "geometry": {"type": "Point", "coordinates": [103.567503, -1.6027311]}}, {"type": "Feature", "properties": {"dest_name": "SMP Islam Uswatun Hasanah", "category": "education", "node_id": 4271726097, "dest_id": 382}, "geometry": {"type": "Point", "coordinates": [103.5678524, -1.6071599]}}, {"type": "Feature", "properties": {"dest_name": "Madrasah Tsanawiyah Swasta An Nizhom", "category": "education", "node_id": 4272172212, "dest_id": 383}, "geometry": {"type": "Point", "coordinates": [103.57444, -1.6046825]}}, {"type": "Feature", "properties": {"dest_name": "Madrasah Tsanawiyah Al-Madrasatul Mahdaliyah", "category": "education", "node_id": 6130546861, "dest_id": 384}, "geometry": {"type": "Point", "coordinates": [103.5924596, -1.6229158]}}, {"type": "Feature", "properties": {"dest_name": "Sekolah Dasar Negeri 51/IV Kota Jambi Lor. Derma Sipin", "category": "education", "node_id": 7736549014, "dest_id": 385}, "geometry": {"type": "Point", "coordinates": [103.5913554, -1.6135096]}}, {"type": "Feature", "properties": {"dest_name": "Madrasah Ibtida'iyah Nurussa'adah", "category": "education", "node_id": 6137107380, "dest_id": 386}, "geometry": {"type": "Point", "coordinates": [103.62893830000002, -1.608654]}}, {"type": "Feature", "properties": {"dest_name": "Madrasah Tsanawiyah Swasta Ainul Yaqin", "category": "education", "node_id": 6731984955, "dest_id": 387}, "geometry": {"type": "Point", "coordinates": [103.60923210000001, -1.6056502]}}, {"type": "Feature", "properties": {"dest_name": "Madrasah Kurnia Asparagus", "category": "education", "node_id": 6130538356, "dest_id": 388}, "geometry": {"type": "Point", "coordinates": [103.5816714, -1.6288555]}}, {"type": "Feature", "properties": {"dest_name": "Madrasah Aliyah As'ad Jambi", "category": "education", "node_id": 7647920574, "dest_id": 389}, "geometry": {"type": "Point", "coordinates": [103.5962487, -1.5710584]}}, {"type": "Feature", "properties": {"dest_name": "Nurul Hidayah Islamic Primary School", "category": "education", "node_id": 6259097785, "dest_id": 390}, "geometry": {"type": "Point", "coordinates": [103.6396464, -1.6233614]}}, {"type": "Feature", "properties": {"dest_name": "Madrasah Ibtidaiyah Al- Muhajirin", "category": "education", "node_id": 6136251385, "dest_id": 391}, "geometry": {"type": "Point", "coordinates": [103.6161203, -1.6161865]}}, {"type": "Feature", "properties": {"dest_name": "Madrasah Ibtidaiyah Muhajirin", "category": "education", "node_id": 6167594934, "dest_id": 392}, "geometry": {"type": "Point", "coordinates": [103.570765, -1.617455]}}, {"type": "Feature", "properties": {"dest_name": "MTS Tarbiyah Islamiyah Simpang III Sipin Kecamatan Kotabaru Jambi", "category": "education", "node_id": 3506251635, "dest_id": 393}, "geometry": {"type": "Point", "coordinates": [103.5872578, -1.6323858]}}, {"type": "Feature", "properties": {"dest_name": "Madrasah Tsanawiyah Asas Islamiyah Sipin", "category": "education", "node_id": 5462703349, "dest_id": 394}, "geometry": {"type": "Point", "coordinates": [103.5820626, -1.6195928]}}, {"type": "Feature", "properties": {"dest_name": "Madrasah Ibtidaiyah Sa'adatus Shibyan", "category": "education", "node_id": 7611109877, "dest_id": 395}, "geometry": {"type": "Point", "coordinates": [103.6093938, -1.586014]}}, {"type": "Feature", "properties": {"dest_name": "Madrasah Aliyah Swasta Nurussolah Kota Jambi", "category": "education", "node_id": 5769149611, "dest_id": 396}, "geometry": {"type": "Point", "coordinates": [103.5505015, -1.6242834]}}, {"type": "Feature", "properties": {"dest_name": "Madrasah Qur\u2019an Darusshofa", "category": "education", "node_id": 7577284938, "dest_id": 397}, "geometry": {"type": "Point", "coordinates": [103.6259631, -1.6416343]}}, {"type": "Feature", "properties": {"dest_name": "Madrasah Tsanawiyah Nurul Islam", "category": "education", "node_id": 6148060855, "dest_id": 398}, "geometry": {"type": "Point", "coordinates": [103.5932175, -1.5861383]}}, {"type": "Feature", "properties": {"dest_name": "Madrasah Al-khairiyah Jambi", "category": "education", "node_id": 5122353299, "dest_id": 399}, "geometry": {"type": "Point", "coordinates": [103.6148953, -1.5948662]}}, {"type": "Feature", "properties": {"dest_name": "Madrasah Aliyah Negeri 1 Kota Jambi", "category": "education", "node_id": 7647920560, "dest_id": 400}, "geometry": {"type": "Point", "coordinates": [103.596596, -1.5689664]}}, {"type": "Feature", "properties": {"dest_name": "Al Hidayah Islamic Elementary School", "category": "education", "node_id": 6135296948, "dest_id": 401}, "geometry": {"type": "Point", "coordinates": [103.63401410000002, -1.5928312]}}, {"type": "Feature", "properties": {"dest_name": "Madrasah Ibtidaiyah Al - Mukhlisin", "category": "education", "node_id": 6080859511, "dest_id": 402}, "geometry": {"type": "Point", "coordinates": [103.6316418, -1.6344794]}}, {"type": "Feature", "properties": {"dest_name": "Madrasah Tsanawiyah Nurul Iman", "category": "education", "node_id": 7610904876, "dest_id": 403}, "geometry": {"type": "Point", "coordinates": [103.6048859, -1.5853868]}}, {"type": "Feature", "properties": {"dest_name": "MI Nurussibyan", "category": "education", "node_id": 6129857258, "dest_id": 404}, "geometry": {"type": "Point", "coordinates": [103.6359434, -1.6115058]}}, {"type": "Feature", "properties": {"dest_name": "Madrasah Aliyah Al-Hidayah", "category": "education", "node_id": 7608008920, "dest_id": 405}, "geometry": {"type": "Point", "coordinates": [103.5946645, -1.6654534]}}, {"type": "Feature", "properties": {"dest_name": "MAN 3 KOTA JAMBI", "category": "education", "node_id": 5715947273, "dest_id": 406}, "geometry": {"type": "Point", "coordinates": [103.6607872, -1.6131436]}}, {"type": "Feature", "properties": {"dest_name": "Madrasah Ibtidaiyah Mambaul Ulum", "category": "education", "node_id": 6259309170, "dest_id": 407}, "geometry": {"type": "Point", "coordinates": [103.6697409, -1.6310618]}}, {"type": "Feature", "properties": {"dest_name": "Madrasah Diniyah Nurul Iman", "category": "education", "node_id": 7647947886, "dest_id": 408}, "geometry": {"type": "Point", "coordinates": [103.609529, -1.565872]}}, {"type": "Feature", "properties": {"dest_name": "Madrasah Tarbiyatussholatiyah Jambi", "category": "education", "node_id": 5126812631, "dest_id": 409}, "geometry": {"type": "Point", "coordinates": [103.6077709, -1.5751844]}}, {"type": "Feature", "properties": {"dest_name": "Sekolah Dasar Negeri 91/IV", "category": "education", "node_id": 6129977092, "dest_id": 410}, "geometry": {"type": "Point", "coordinates": [103.585498, -1.6059216]}}, {"type": "Feature", "properties": {"dest_name": "SD Negeri 63 Jambi", "category": "education", "node_id": 7730919137, "dest_id": 411}, "geometry": {"type": "Point", "coordinates": [103.5987756, -1.6200502]}}, {"type": "Feature", "properties": {"dest_name": "SDN/IV 101", "category": "education", "node_id": 6729665140, "dest_id": 412}, "geometry": {"type": "Point", "coordinates": [103.5987291, -1.5955366]}}, {"type": "Feature", "properties": {"dest_name": "State Primary School 96 / IV", "category": "education", "node_id": 6475886359, "dest_id": 413}, "geometry": {"type": "Point", "coordinates": [103.597351, -1.6323517]}}, {"type": "Feature", "properties": {"dest_name": "SDN 30 Kota Jambi", "category": "education", "node_id": 6056125991, "dest_id": 414}, "geometry": {"type": "Point", "coordinates": [103.5957615, -1.6021847]}}, {"type": "Feature", "properties": {"dest_name": "Sekolah Dasar Negeri 94/IV Kota Jambi", "category": "education", "node_id": 6130538347, "dest_id": 415}, "geometry": {"type": "Point", "coordinates": [103.5835731, -1.6295796]}}, {"type": "Feature", "properties": {"dest_name": "SDN 15/IV", "category": "education", "node_id": 6129986613, "dest_id": 416}, "geometry": {"type": "Point", "coordinates": [103.6012478, -1.6126472]}}, {"type": "Feature", "properties": {"dest_name": "SDN 21 Kota Jambi", "category": "education", "node_id": 7608716716, "dest_id": 417}, "geometry": {"type": "Point", "coordinates": [103.6119585, -1.5823985]}}, {"type": "Feature", "properties": {"dest_name": "Sekolah Dasar Negeri 31/IV", "category": "education", "node_id": 5122354006, "dest_id": 418}, "geometry": {"type": "Point", "coordinates": [103.6076319, -1.5990531]}}, {"type": "Feature", "properties": {"dest_name": "Sekolah Dasar Negeri 219 / IV", "category": "education", "node_id": 5722943146, "dest_id": 419}, "geometry": {"type": "Point", "coordinates": [103.5502196, -1.6162452]}}, {"type": "Feature", "properties": {"dest_name": "SDN 68- rayon smp23", "category": "education", "node_id": 6056126026, "dest_id": 420}, "geometry": {"type": "Point", "coordinates": [103.6049088, -1.5929102]}}, {"type": "Feature", "properties": {"dest_name": "Elementary School No. 205 / IV", "category": "education", "node_id": 6471670836, "dest_id": 421}, "geometry": {"type": "Point", "coordinates": [103.5561529, -1.619899]}}, {"type": "Feature", "properties": {"dest_name": "State Primary School 93 / IV", "category": "education", "node_id": 5722942136, "dest_id": 422}, "geometry": {"type": "Point", "coordinates": [103.5764429, -1.6288362]}}, {"type": "Feature", "properties": {"dest_name": "Sekolah Dasar Negeri 19/IV Kota Jambi", "category": "education", "node_id": 7733096526, "dest_id": 423}, "geometry": {"type": "Point", "coordinates": [103.6098792, -1.6133333]}}, {"type": "Feature", "properties": {"dest_name": "Sdn 67 Danau Sipin", "category": "education", "node_id": 6130383361, "dest_id": 424}, "geometry": {"type": "Point", "coordinates": [103.5875519, -1.5985928]}}, {"type": "Feature", "properties": {"dest_name": "Sekolah Dasar Negeri 149 / IV Kota Jambi", "category": "education", "node_id": 6167930568, "dest_id": 425}, "geometry": {"type": "Point", "coordinates": [103.5788616, -1.6264632]}}, {"type": "Feature", "properties": {"dest_name": "SD 179", "category": "education", "node_id": 11777715692, "dest_id": 426}, "geometry": {"type": "Point", "coordinates": [103.60203890000001, -1.6066158]}}, {"type": "Feature", "properties": {"dest_name": "SD Swasta Kartika II-4", "category": "education", "node_id": 6134376822, "dest_id": 427}, "geometry": {"type": "Point", "coordinates": [103.5917753, -1.6110643]}}, {"type": "Feature", "properties": {"dest_name": "SD TUNAS ABADI Jelutung,Kota Jambi", "category": "education", "node_id": 6129887768, "dest_id": 428}, "geometry": {"type": "Point", "coordinates": [103.6160236, -1.6095965]}}, {"type": "Feature", "properties": {"dest_name": "State Senior High School 11 Jambi", "category": "education", "node_id": 6167911859, "dest_id": 429}, "geometry": {"type": "Point", "coordinates": [103.5610295, -1.6396472]}}, {"type": "Feature", "properties": {"dest_name": "SDN 150/IV Kota Baru", "category": "education", "node_id": 6077321684, "dest_id": 430}, "geometry": {"type": "Point", "coordinates": [103.573137, -1.6347059]}}, {"type": "Feature", "properties": {"dest_name": "SMP islam Lima Utama", "category": "education", "node_id": 6133943279, "dest_id": 431}, "geometry": {"type": "Point", "coordinates": [103.6030764, -1.6243758]}}, {"type": "Feature", "properties": {"dest_name": "School SMP Negeri 4 Jambi", "category": "education", "node_id": 7568188450, "dest_id": 432}, "geometry": {"type": "Point", "coordinates": [103.6398601, -1.6536205]}}, {"type": "Feature", "properties": {"dest_name": "Sekolah Menengah Pertama 2 Mei Kota Jambi", "category": "education", "node_id": 5126812805, "dest_id": 433}, "geometry": {"type": "Point", "coordinates": [103.5718192, -1.6142598]}}, {"type": "Feature", "properties": {"dest_name": "Jambi City Junior High School 24", "category": "education", "node_id": 6077322077, "dest_id": 434}, "geometry": {"type": "Point", "coordinates": [103.5914968, -1.6436596]}}, {"type": "Feature", "properties": {"dest_name": "SMP PGRI 2", "category": "education", "node_id": 6056126004, "dest_id": 435}, "geometry": {"type": "Point", "coordinates": [103.5960889, -1.5999138]}}, {"type": "Feature", "properties": {"dest_name": "SMP Dharma Bhakti 2", "category": "education", "node_id": 6130613600, "dest_id": 436}, "geometry": {"type": "Point", "coordinates": [103.5871272, -1.6237811]}}, {"type": "Feature", "properties": {"dest_name": "Junior High School 13 Jambi", "category": "education", "node_id": 7611921792, "dest_id": 437}, "geometry": {"type": "Point", "coordinates": [103.6198614, -1.5766854]}}, {"type": "Feature", "properties": {"dest_name": "Junior High School 18 Jambi", "category": "education", "node_id": 3781524345, "dest_id": 438}, "geometry": {"type": "Point", "coordinates": [103.5987713, -1.6568757]}}, {"type": "Feature", "properties": {"dest_name": "SDN 218/IV Paal Merah", "category": "education", "node_id": 6080859550, "dest_id": 439}, "geometry": {"type": "Point", "coordinates": [103.6357107, -1.6348427]}}, {"type": "Feature", "properties": {"dest_name": "Pondok Pesantren Arrahmah", "category": "education", "node_id": 5766734936, "dest_id": 440}, "geometry": {"type": "Point", "coordinates": [103.6315641, -1.6402267]}}, {"type": "Feature", "properties": {"dest_name": "TK Ar-Ridho", "category": "education", "node_id": 5162151073, "dest_id": 441}, "geometry": {"type": "Point", "coordinates": [103.6649072, -1.6152362]}}, {"type": "Feature", "properties": {"dest_name": "Tk. Al Muniroh Payo Selincah Keo PaalMerah Kota Jambi", "category": "education", "node_id": 6134169150, "dest_id": 442}, "geometry": {"type": "Point", "coordinates": [103.652669, -1.5934412]}}]}